"Reference ID","Box Number","Site Name","Street","City","County","Program","Latitude","Longitude","All Programs for Site","Covenant","RCRA Hazardous Waste Sites"
"5661","2011BAZ7032","1005 MCKINLEY AVE","1005 W MCKINLEY AVE","KELLOGG","Shoshone","RCRA Hazardous Waste Sites","47.538730","-116.138553","RCRA Hazardous Waste Site","","RCRA Hazardous Waste Sites"
"5661","2011BAZ7032","1005 MCKINLEY AVE","1005 W MCKINLEY AVE","KELLOGG","Shoshone","RCRA Hazardous Waste Sites","47.538730","-116.138553","RCRA Hazardous Waste Site","","RCRA Hazardous Waste Sites"
"9711","2011BAZ6527","123 AUTO DR BOISE","123 AUTO DR","BOISE","Ada","RCRA Hazardous Waste Sites","43.60385","-116.27625","General Remediation, RCRA Hazardous Waste Site, Underground Storage Tanks","","RCRA Hazardous Waste Sites"
"2452","2011BAZ11","13650 N GOVT WAY","13650 N GOVT WAY","HAYDEN","Kootenai","RCRA Hazardous Waste Sites","47.79511","-116.7846","General Remediation, National Priorities List (NPL), RCRA Hazardous Waste Site, Underground Storage Tanks","","RCRA Hazardous Waste Sites"
"14015","2012BAZ11","1 4 GROUP","2307 E COMMERCIAL ST","MERIDIAN","Ada","RCRA Hazardous Waste Sites","43.609","-116.366","RCRA Hazardous Waste Site","","RCRA Hazardous Waste Sites"
"2356","2011BAZ13","17TH & STATE ST MARKETPLACE","NW CORNER OF 17TH & STATE ST","BOISE","Ada","RCRA Hazardous Waste Sites","43.624578","-116.211448","RCRA Hazardous Waste Site","","RCRA Hazardous Waste Sites"
"2359","2011BAZ21","20TH CENTURY FORD INC","1090 FORDWAY","BLACKFOOT","Bingham","RCRA Hazardous Waste Sites","43.195779","-112.357736","RCRA Hazardous Waste Site, Underground Storage Tanks","","RCRA Hazardous Waste Sites"
"2361","2011BAZ24","224 CANAL ST","224 CANAL ST","PIERCE","Clearwater","RCRA Hazardous Waste Sites","46.493389","-115.797711","RCRA Hazardous Waste Site, Underground Storage Tanks","","RCRA Hazardous Waste Sites"
"2362","2011BAZ25","2840 S COLE RD","2840 S COLE RD","BOISE","Ada","RCRA Hazardous Waste Sites","43.577114","-116.273299","RCRA Hazardous Waste Site","","RCRA Hazardous Waste Sites"
"2362","2011BAZ25","2840 S COLE RD","2840 S COLE RD","BOISE","Ada","RCRA Hazardous Waste Sites","43.577114","-116.273299","RCRA Hazardous Waste Site","","RCRA Hazardous Waste Sites"
"3279","2011BAZ1783","2A ARMAMENT LLC","7545 S EISENMAN RD","BOISE","Ada","RCRA Hazardous Waste Sites","43.533852","-116.160583","RCRA Hazardous Waste Site","","RCRA Hazardous Waste Sites"
"7862","2011BAZ30","3370 HWY 30 W","3370 HWY 30 W","POCATELLO","Bannock","RCRA Hazardous Waste Sites","42.89339","-112.4789","Leaking Underground Storage Tanks, RCRA Hazardous Waste Site, Underground Storage Tanks","","RCRA Hazardous Waste Sites"
"7862","2011BAZ30","3370 HWY 30 W","3370 HWY 30 W","POCATELLO","Bannock","RCRA Hazardous Waste Sites","42.89339","-112.4789","Leaking Underground Storage Tanks, RCRA Hazardous Waste Site, Underground Storage Tanks","","RCRA Hazardous Waste Sites"
"3273","2011BAZ1774","3403 ARTHUR STDENNIS DILLON TRUCK & USED CAR","3403 ARTHUR ST","CALDWELL","Canyon","RCRA Hazardous Waste Sites","43.647376","-116.65939","RCRA Hazardous Waste Site","","RCRA Hazardous Waste Sites"
"2365","2011BAZ32","3650 RAMSEY RD","3650 RAMSEY RD","COEUR D ALENE","Kootenai","RCRA Hazardous Waste Sites","47.71095","-116.806643","RCRA Hazardous Waste Site, Solid Waste, Underground Storage Tanks","","RCRA Hazardous Waste Sites"
"2365","2011BAZ32","3650 RAMSEY RD","3650 RAMSEY RD","COEUR D ALENE","Kootenai","RCRA Hazardous Waste Sites","47.71095","-116.806643","RCRA Hazardous Waste Site, Solid Waste, Underground Storage Tanks","","RCRA Hazardous Waste Sites"
"2366","2011BAZ33","37TH ST COMMERCIAL UNITS","200-214 E 37TH ST","GARDEN CITY","Ada","RCRA Hazardous Waste Sites","43.627015","-116.239964","RCRA Hazardous Waste Site","","RCRA Hazardous Waste Sites"
"7870","2011BAZ36","415 N 8TH ST","415 N 8TH ST","BOISE","Ada","RCRA Hazardous Waste Sites","43.6185","-116.20121","General Remediation, RCRA Hazardous Waste Site, Underground Storage Tanks","","RCRA Hazardous Waste Sites"
"7870","2011BAZ36","415 N 8TH ST","415 N 8TH ST","BOISE","Ada","RCRA Hazardous Waste Sites","43.6185","-116.20121","General Remediation, RCRA Hazardous Waste Site, Underground Storage Tanks","","RCRA Hazardous Waste Sites"
"112746","2015BAZ23","4R CUSTOM WELDING & REPAIR","2626 OLD DUMP RD","HOMEDALE","Owyhee","RCRA Hazardous Waste Sites","43.612992","-116.963918","RCRA Hazardous Waste Site","","RCRA Hazardous Waste Sites"
"2369","2011BAZ41","4-SQUARE MINE","FS RD 9","MURRAY","Shoshone","RCRA Hazardous Waste Sites","47.82","-115.94","RCRA Hazardous Waste Site","","RCRA Hazardous Waste Sites"
"7885","2011BAZ46","5TH ST AUTOMOTIVE REPAIR","3139 5TH ST","LEWISTON","Nez Perce","RCRA Hazardous Waste Sites","46.38786","-117.00651","RCRA Hazardous Waste Site, Underground Storage Tanks","","RCRA Hazardous Waste Sites"
"2462","2011BAZ48","7-ELEVEN NO 22630","9577 N GOVT WAY","HAYDEN","Kootenai","RCRA Hazardous Waste Sites","47.75863","-116.78687","Leaking Underground Storage Tanks, RCRA Hazardous Waste Site, Underground Storage Tanks","","RCRA Hazardous Waste Sites"
"2373","2011BAZ59","834 MCKINLEY AVE","834 MCKINLEY AVE","KELLOGG","Shoshone","RCRA Hazardous Waste Sites","47.537855","-116.134475","RCRA Hazardous Waste Site","","RCRA Hazardous Waste Sites"
"2373","2011BAZ59","834 MCKINLEY AVE","834 MCKINLEY AVE","KELLOGG","Shoshone","RCRA Hazardous Waste Sites","47.537855","-116.134475","RCRA Hazardous Waste Site","","RCRA Hazardous Waste Sites"
"2387","2011BAZ91","AAA-1 ENTERPRISES","512C E 46TH ST","GARDEN CITY","Ada","RCRA Hazardous Waste Sites","43.641456","-116.252683","RCRA Hazardous Waste Site","","RCRA Hazardous Waste Sites"
"2381","2011BAZ85","AAA ACTION PAINTING","2795 PARK LN","EAGLE","Ada","RCRA Hazardous Waste Sites","43.720236","-116.404569","RCRA Hazardous Waste Site","","RCRA Hazardous Waste Sites"
"2382","2011BAZ86","AAA COLLISION REPAIR","111 W 43RD ST","GARDEN CITY","Ada","RCRA Hazardous Waste Sites","43.631315","-116.253603","RCRA Hazardous Waste Site, Underground Storage Tanks","","RCRA Hazardous Waste Sites"
"2382","2011BAZ86","AAA COLLISION REPAIR","111 W 43RD ST","GARDEN CITY","Ada","RCRA Hazardous Waste Sites","43.631315","-116.253603","RCRA Hazardous Waste Site, Underground Storage Tanks","","RCRA Hazardous Waste Sites"
"2384","2011BAZ88","AAA PAINTING","1515 E MCMILLAN RD","MERIDIAN","Ada","RCRA Hazardous Waste Sites","43.64782","-116.376055","RCRA Hazardous Waste Site","","RCRA Hazardous Waste Sites"
"2385","2011BAZ89","AAA PUMPING","HWY 95 10 MI S OF RIGGINS","RIGGINS","Idaho","RCRA Hazardous Waste Sites","","","RCRA Hazardous Waste Site","","RCRA Hazardous Waste Sites"
"8086","2011BAZ92","AAMCO TRANSMISSION CDA","415 N 3RD ST","COEUR D ALENE","Kootenai","RCRA Hazardous Waste Sites","47.676523","-116.782928","RCRA Hazardous Waste Site, Underground Storage Tanks","","RCRA Hazardous Waste Sites"
"7900","2011BAZ94","AAMCO TRANSMISSIONS","8486 W FAIRVIEW AVE","BOISE","Ada","RCRA Hazardous Waste Sites","43.61629","-116.20837","RCRA Hazardous Waste Site, Underground Storage Tanks","","RCRA Hazardous Waste Sites"
"2388","2011BAZ95","AAPEX CONSTRUCTION INC","301 SPOKANE ST","POST FALLS","Kootenai","RCRA Hazardous Waste Sites","47.708214","-116.948100","RCRA Hazardous Waste Site","","RCRA Hazardous Waste Sites"
"3476","2011BAZ2205","ABANDONED FRANKLIN CO SUGAR CO","1699 S 1300 E(1/4 MI SW OF HWY 91 AND 1400 S INTERSECTION)","PRESTON","Franklin","RCRA Hazardous Waste Sites","42.067703","-111.844461","RCRA Hazardous Waste Site","","RCRA Hazardous Waste Sites"
"2389","2011BAZ97","ABATEMENT PRO INC","4149 S CUBOLA AVE","MERIDIAN","Ada","RCRA Hazardous Waste Sites","43.567193","-116.357589","RCRA Hazardous Waste Site","","RCRA Hazardous Waste Sites"
"2390","2011BAZ99","ABC AUTO CLINIC","2831 POCATELLO AVE","AMERICAN FALLS","Power","RCRA Hazardous Waste Sites","42.788588","-112.841393","RCRA Hazardous Waste Site","","RCRA Hazardous Waste Sites"
"2391","2011BAZ100","ABC INDUSTRIAL","669 W QUINN RD BLDG 1","POCATELLO","Bannock","RCRA Hazardous Waste Sites","42.905155","-112.460484","RCRA Hazardous Waste Site","","RCRA Hazardous Waste Sites"
"2399","2011BAZ109","ABERDEEN SPRINGFIELD CANAL CO","3 MI S of Aberdeen on HWY 39 (144 S MAIN ST )","ABERDEEN","Bingham","RCRA Hazardous Waste Sites","42.941900","-112.838738","RCRA Hazardous Waste Site, Underground Storage Tanks","","RCRA Hazardous Waste Sites"
"2401","2011BAZ112","ABERDEEN WW TREATMENT PLANT","SE OF CITY","ABERDEEN","Bingham","RCRA Hazardous Waste Sites","42.94114","-112.825868","RCRA Hazardous Waste Site","","RCRA Hazardous Waste Sites"
"2393","2011BAZ103","ABE RED BLUFF ROCKET CLAIMS","VALLEY CNTY","CASCADE","Valley","RCRA Hazardous Waste Sites","","","RCRA Hazardous Waste Site","","RCRA Hazardous Waste Sites"
"13958","2011BAZ64","A & B IRRIGATION DIST","414 11TH ST (11TH & E ST)","RUPERT","Minidoka","RCRA Hazardous Waste Sites","42.623","-113.673","RCRA Hazardous Waste Site, Underground Storage Tanks","","RCRA Hazardous Waste Sites"
"2375","2011BAZ66","A & B IRRIGATION DIST WELL 7B824","850 N 125 W","RUPERT","Minidoka","RCRA Hazardous Waste Sites","42.742096","-113.690865","RCRA Hazardous Waste Site","","RCRA Hazardous Waste Sites"
"2402","2011BAZ113","ABLE CLEANUP TECHNOLOGIES INC","8749 W HACKAMORE DR STE 4","BOISE","Ada","RCRA Hazardous Waste Sites","43.594217","-116.290949","RCRA Hazardous Waste Site","","RCRA Hazardous Waste Sites"
"2403","2011BAZ114","ABSOLUTE FINISH INC","1708 6TH AVE N","LEWISTON","Nez Perce","RCRA Hazardous Waste Sites","46.426556","-117.008397","RCRA Hazardous Waste Site","","RCRA Hazardous Waste Sites"
"2404","2011BAZ116","ACB TRUCKING","4503 S 5TH","POCATELLO","Bannock","RCRA Hazardous Waste Sites","42.833441","-112.402803","RCRA Hazardous Waste Site","","RCRA Hazardous Waste Sites"
"2405","2011BAZ117","ACCENT OPTICAL","1039 21ST ST","LEWISTON","Nez Perce","RCRA Hazardous Waste Sites","46.410176","-117.001897","RCRA Hazardous Waste Site","","RCRA Hazardous Waste Sites"
"2406","2011BAZ118","ACCURA BULLETS LLC","2316 E RAILROAD ST","NAMPA","Canyon","RCRA Hazardous Waste Sites","43.569517","-116.541598","RCRA Hazardous Waste Site","","RCRA Hazardous Waste Sites"
"2408","2011BAZ120","ACECO PRECISION MFG INC","4419 S FEDERAL WAY","BOISE","Ada","RCRA Hazardous Waste Sites","43.562451","-116.172579","RCRA Hazardous Waste Site","","RCRA Hazardous Waste Sites"
"2409","2011BAZ121","ACECO SEMICONDUCTOR","4095 S GEKELER LN","BOISE","Ada","RCRA Hazardous Waste Sites","43.565243","-116.184132","RCRA Hazardous Waste Site","","RCRA Hazardous Waste Sites"
"2407","2011BAZ119","ACE QUALITY FLOOR COVERING","262 N ALLUMBAUGH ST 120","BOISE","Ada","RCRA Hazardous Waste Sites","43.606556","-116.266252","RCRA Hazardous Waste Site","","RCRA Hazardous Waste Sites"
"2410","2011BAZ123","ACME MTLS & CONS CO RATHDRUM","8805 W WYOMING","RATHDRUM","Kootenai","RCRA Hazardous Waste Sites","47.773785","-116.895135","RCRA Hazardous Waste Site","","RCRA Hazardous Waste Sites"
"2411","2011BAZ124","ACON LLC","792 CYPRESS","POCATELLO","Bannock","RCRA Hazardous Waste Sites","42.883921","-112.46552","RCRA Hazardous Waste Site","","RCRA Hazardous Waste Sites"
"2377","2011BAZ72","A COOL UNIT","3650 W ELK DR","POST FALLS","Kootenai","RCRA Hazardous Waste Sites","47.717692","-116.996816","RCRA Hazardous Waste Site","","RCRA Hazardous Waste Sites"
"2412","2011BAZ125","ACTION TRAILER","3777 W CHINDEN BLVD","GARDEN CITY","Ada","RCRA Hazardous Waste Sites","43.626010","-116.244241","RCRA Hazardous Waste Site","","RCRA Hazardous Waste Sites"
"2482","2011BAZ131","ADA CNTY HWY DIST ADAMS","3700 ADAMS ST","GARDEN CITY","Ada","RCRA Hazardous Waste Sites","43.62904","-116.23817","Leaking Underground Storage Tanks, RCRA Hazardous Waste Site, Underground Storage Tanks","","RCRA Hazardous Waste Sites"
"2413","2011BAZ132","ADA CNTY HWY DIST ANDERSON","3611-3617 ANDERSON ST","BOISE","Ada","RCRA Hazardous Waste Sites","43.640755","-116.234233","RCRA Hazardous Waste Site","","RCRA Hazardous Waste Sites"
"112721","2011BAZ132","ADA CNTY HWY DIST ANDERSON","3611-3617 ANDERSON ST","BOISE","Ada","RCRA Hazardous Waste Sites","43.640755","-116.234233","RCRA Hazardous Waste Site","","RCRA Hazardous Waste Sites"
"2414","2011BAZ134","ADA CNTY HWY DIST E 37TH","318 E 37TH ST","GARDEN CITY","Ada","RCRA Hazardous Waste Sites","43.629565","-116.238158","RCRA Hazardous Waste Site","","RCRA Hazardous Waste Sites"
"2483","2011BAZ135","ADA CNTY HWY DIST GROVE","1101 GROVE ST","BOISE","Ada","RCRA Hazardous Waste Sites","43.61659","-116.2083","Leaking Underground Storage Tanks, RCRA Hazardous Waste Site, Underground Storage Tanks","","RCRA Hazardous Waste Sites"
"2415","2011BAZ136","ADA CNTY HWY DIST HILL","8441 HILL RD","BOISE","Ada","RCRA Hazardous Waste Sites","43.687905","-116.291328","RCRA Hazardous Waste Site","","RCRA Hazardous Waste Sites"
"2416","2011BAZ137","ADA CNTY HWY DIST LINCOLN ST","1200 LINCOLN AVE","BOISE","Ada","RCRA Hazardous Waste Sites","43.598238","-116.201937","RCRA Hazardous Waste Site","","RCRA Hazardous Waste Sites"
"2417","2011BAZ138","ADA CNTY HWY DIST MERIDIAN RD","N MERIDIAN RD (300 S of Broadway, eastside)","MERIDIAN","Ada","RCRA Hazardous Waste Sites","43.609348","-116.393505","RCRA Hazardous Waste Site","","RCRA Hazardous Waste Sites"
"2418","2011BAZ139","ADA CNTY HWY DIST OWYHEE PLAZA","1109 W MAIN ST","BOISE","Ada","RCRA Hazardous Waste Sites","43.617646","-116.207923","RCRA Hazardous Waste Site","","RCRA Hazardous Waste Sites"
"2419","2011BAZ140","ADA CNTY HWY DIST S 13TH","301 S 13TH ST","BOISE","Ada","RCRA Hazardous Waste Sites","43.617032","-116.21135","RCRA Hazardous Waste Site","","RCRA Hazardous Waste Sites"
"7910","2011BAZ141","ADA CNTY HWY DIST S 17TH","828 S 17TH ST","BOISE","Ada","RCRA Hazardous Waste Sites","43.618429","-116.222924","Leaking Underground Storage Tanks, RCRA Hazardous Waste Site, Underground Storage Tanks","","RCRA Hazardous Waste Sites"
"7906","2011BAZ128","ADA CNTY LANDFILL","9005 SEAMANS GULCH RD","BOISE","Ada","RCRA Hazardous Waste Sites","43.70409","-116.27786","General Remediation, RCRA Hazardous Waste Site, Solid Waste, Underground Storage Tanks","","RCRA Hazardous Waste Sites"
"2484","2011BAZ144","ADA CNTY PUBLIC SAFETY BDLG","7200 BARRISTER DR","BOISE","Ada","RCRA Hazardous Waste Sites","43.60866","-116.26988","Leaking Underground Storage Tanks, RCRA Hazardous Waste Site, Underground Storage Tanks","","RCRA Hazardous Waste Sites"
"7912","2011BAZ145","ADA CNTY RISK MGMT","914 ROYAL BLVD","BOISE","Ada","RCRA Hazardous Waste Sites","43.6093","-116.21216","Leaking Underground Storage Tanks, RCRA Hazardous Waste Site, Underground Storage Tanks","","RCRA Hazardous Waste Sites"
"27648","2012BAZ479","ADA CO WEED PEST & MOSQUITO ABATEMENT DEPT","975 E PINE AVE","MERIDIAN","Ada","RCRA Hazardous Waste Sites","43.610436","-116.378493","RCRA Hazardous Waste Site","","RCRA Hazardous Waste Sites"
"2422","2011BAZ149","ADA ELECTRIC CO INC","1761 N HAMPTON","BOISE","Ada","RCRA Hazardous Waste Sites","43.621048","-116.309297","RCRA Hazardous Waste Site","","RCRA Hazardous Waste Sites"
"2424","2011BAZ153","ADAMS PAINT","1522 W RIVER ST","BOISE","Ada","RCRA Hazardous Waste Sites","43.617723","-116.216232","RCRA Hazardous Waste Site","","RCRA Hazardous Waste Sites"
"2425","2011BAZ155","ADAMS ST INVESTMENTS","415 E 42ND ST","GARDEN CITY","Ada","RCRA Hazardous Waste Sites","43.634918","-116.245634","RCRA Hazardous Waste Site","","RCRA Hazardous Waste Sites"
"2423","2011BAZ150","ADA TOWING VACANT","119 E 35TH ST","GARDEN CITY","Ada","RCRA Hazardous Waste Sites","43.624172","-116.238738","RCRA Hazardous Waste Site","","RCRA Hazardous Waste Sites"
"2427","2011BAZ160","ADDISON ANIMAL CENTER","2285 ADDISON AVE E","TWIN FALLS","Twin Falls","RCRA Hazardous Waste Sites","42.563624","-114.438544","RCRA Hazardous Waste Site","","RCRA Hazardous Waste Sites"
"110518","2014BAZ105","ADRENALINE PERFORMANCE","606 N STATE ST(YELLOWSTONE HWY)","SHELLEY","BINGHAM","RCRA Hazardous Waste Sites","43.391169","-112.11651","RCRA Hazardous Waste Site","","RCRA Hazardous Waste Sites"
"2428","2011BAZ161","ADS PARTNERSHIP DAVIS PACKING","400 E 36TH ST","GARDEN CITY","Ada","RCRA Hazardous Waste Sites","43.626979","-116.236115","RCRA Hazardous Waste Site","","RCRA Hazardous Waste Sites"
"2429","2011BAZ162","ADVANCED DISTRIBUTORS","1322 F ST","LEWISTON","Nez Perce","RCRA Hazardous Waste Sites","46.417626","-117.014894","RCRA Hazardous Waste Site","","RCRA Hazardous Waste Sites"
"2430","2011BAZ163","ADVANCED ENVIRONMENTAL TECH SERVICES","917 ISLAND AVE","BOISE","Ada","RCRA Hazardous Waste Sites","43.60761","-116.213185","RCRA Hazardous Waste Site","","RCRA Hazardous Waste Sites"
"2432","2011BAZ165","ADVANCED INPUT DEVICES AID","250 W AID DR","COEUR D ALENE","Kootenai","RCRA Hazardous Waste Sites","47.742649","-116.790419","General Remediation, RCRA Hazardous Waste Site","","RCRA Hazardous Waste Sites"
"2433","2011BAZ166","ADVANCED INPUT DEVICES PRIEST RIVER","PRIEST RIVER INDUSTRIAL PARK (1421 Shannon Ln)","PRIEST RIVER","Bonner","RCRA Hazardous Waste Sites","48.18835","-116.934249","General Remediation, RCRA Hazardous Waste Site","","RCRA Hazardous Waste Sites"
"2431","2011BAZ164","ADVANCED INPUT DEVICES WILBUR","600 W WILBUR AVE","COEUR D ALENE","Kootenai","RCRA Hazardous Waste Sites","47.736264","-116.796001","General Remediation, RCRA Hazardous Waste Site","","RCRA Hazardous Waste Sites"
"14345","2012BAZ41","ADVANCED PRECISION MACHINING INC","180 S ATKINS WAY","MERIDIAN","Ada","RCRA Hazardous Waste Sites","43.603","-116.377","RCRA Hazardous Waste Site","","RCRA Hazardous Waste Sites"
"14092","2012BAZ18","ADVANCED WELDING & STEEL INC","257 HWY 95 N","GRANGEVILLE","Idaho","RCRA Hazardous Waste Sites","45.941","-116.154","RCRA Hazardous Waste Site","","RCRA Hazardous Waste Sites"
"2434","2011BAZ167","ADVENTURE MOTOR SPORTS","2469 KIMBERLY RD","TWIN FALLS","Twin Falls","RCRA Hazardous Waste Sites","42.549371","-114.434157","RCRA Hazardous Waste Site","","RCRA Hazardous Waste Sites"
"2436","2011BAZ170","AEROCET INC","265 SHANNON LN","PRIEST RIVER","Bonner","RCRA Hazardous Waste Sites","48.189422","-116.932321","RCRA Hazardous Waste Site","","RCRA Hazardous Waste Sites"
"2440","2011BAZ175","AFFORDABLE BOAT BROKERAGE","570 N GREENSFERRY RD","POST FALLS","Kootenai","RCRA Hazardous Waste Sites","47.71201","-116.915402","RCRA Hazardous Waste Site","","RCRA Hazardous Waste Sites"
"2441","2011BAZ176","AFFORDABLE TRANSMISSIONS","5712 N GOVT WAY","DALTON GARDENS","Kootenai","RCRA Hazardous Waste Sites","47.723692","-116.786181","RCRA Hazardous Waste Site","","RCRA Hazardous Waste Sites"
"2442","2011BAZ177","AFFTREX LTD","395 W HWY 39","BLACKFOOT","Bingham","RCRA Hazardous Waste Sites","43.198908","-112.375346","RCRA Hazardous Waste Site","","RCRA Hazardous Waste Sites"
"3119","2011BAZ1418","AG EXPRESS INC","425 VICTORY AVE","TWIN FALLS","Twin Falls","RCRA Hazardous Waste Sites","42.555877","-114.487845","RCRA Hazardous Waste Site","","RCRA Hazardous Waste Sites"
"2445","2011BAZ183","AGRIPRO BIOSCIENCES INC","1423 11TH AVE N","NAMPA","Canyon","RCRA Hazardous Waste Sites","43.594876","-116.542471","RCRA Hazardous Waste Site","","RCRA Hazardous Waste Sites"
"2446","2011BAZ184","AGRISALES INC","HWY 30","KIMBERLY","Twin Falls","RCRA Hazardous Waste Sites","42.536696","-114.360407","RCRA Hazardous Waste Site","","RCRA Hazardous Waste Sites"
"2376","2011BAZ68","A & G UPHOLSTERY","6419 USTICK RD","BOISE","Ada","RCRA Hazardous Waste Sites","43.633127","-116.261849","RCRA Hazardous Waste Site","","RCRA Hazardous Waste Sites"
"7895","2011BAZ74","A H SCHADE INC GEM STOP CO 12TH AVE","2221 12TH AVE RD","NAMPA","Canyon","RCRA Hazardous Waste Sites","43.54762","-116.57315","Leaking Underground Storage Tanks, RCRA Hazardous Waste Site, Underground Storage Tanks","","RCRA Hazardous Waste Sites"
"7896","2011BAZ75","A H SCHADE INC GEM STOP CO 2ND ST","1602 2ND ST S","NAMPA","Canyon","RCRA Hazardous Waste Sites","43.57507","-116.55596","RCRA Hazardous Waste Site, Underground Storage Tanks","","RCRA Hazardous Waste Sites"
"7897","2011BAZ76","A H SCHADE INC GEM STOP CO 323 CB","323 CALDWELL BLVD","NAMPA","Canyon","RCRA Hazardous Waste Sites","43.59","-116.5811","Leaking Underground Storage Tanks, RCRA Hazardous Waste Site, Underground Storage Tanks","","RCRA Hazardous Waste Sites"
"2474","2011BAZ77","A H SCHADE INC GEM STOP CO 612 NB","612 NAMPA BLVD","NAMPA","Canyon","RCRA Hazardous Waste Sites","43.59833","-116.57244","Leaking Underground Storage Tanks, RCRA Hazardous Waste Site, Underground Storage Tanks","","RCRA Hazardous Waste Sites"
"8891","2011BAZ3478","A H SCHADE INC GEM STOP CO BROADWAY","1005 BROADWAY AVE","BOISE","Ada","RCRA Hazardous Waste Sites","43.60067","-116.19415","RCRA Hazardous Waste Site, Underground Storage Tanks","","RCRA Hazardous Waste Sites"
"2475","2011BAZ78","A H SCHADE INC GEM STOP CO CURTIS","420 N CURTIS RD","BOISE","Ada","RCRA Hazardous Waste Sites","43.60832","-116.25328","RCRA Hazardous Waste Site, Underground Storage Tanks","","RCRA Hazardous Waste Sites"
"2476","2011BAZ79","A H SCHADE INC GEM STOP CO GUSS GAS & GRUB","1102 CLEVELAND BLVD","CALDWELL","Canyon","RCRA Hazardous Waste Sites","43.66184","-116.68673","Leaking Underground Storage Tanks, RCRA Hazardous Waste Site, Underground Storage Tanks","","RCRA Hazardous Waste Sites"
"2477","2011BAZ80","A H SCHADE INC GEM STOP CO MIDDLETON","802 STAR RD","MIDDLETON","Canyon","RCRA Hazardous Waste Sites","43.70303","-116.61144","Leaking Underground Storage Tanks, RCRA Hazardous Waste Site, Underground Storage Tanks","","RCRA Hazardous Waste Sites"
"2447","2011BAZ187","AIRCO INC INDUSTRIAL GASES DIV","SMELTER HEIGHTS","KELLOGG","Shoshone","RCRA Hazardous Waste Sites","47.537778","-116.153056","RCRA Hazardous Waste Site","","RCRA Hazardous Waste Sites"
"2448","2011BAZ188","AITCO INC","1139 HWY 11 (3 MI N OF WEIPPE)","WEIPPE","Clearwater","RCRA Hazardous Waste Sites","46.429353","-115.898298","RCRA Hazardous Waste Site, Solid Waste","","RCRA Hazardous Waste Sites"
"2449","2011BAZ189","AKRION SCP SERVICES","8455 WESTPARK ST","BOISE","Ada","RCRA Hazardous Waste Sites","43.606942","-116.288055","RCRA Hazardous Waste Site","","RCRA Hazardous Waste Sites"
"14091","2012BAZ179","ALAMEDA AUTOMOTIVE","1185 W ALAMEDA","POCATELLO","Bannock","RCRA Hazardous Waste Sites","42.891","-112.475","RCRA Hazardous Waste Site","","RCRA Hazardous Waste Sites"
"110551","2014BAZ111","ALBERTSONS DC 8710","3649 E COMMERCIAL COURT","MERIDIAN","Ada","RCRA Hazardous Waste Sites","43.608958","-116.348725","RCRA Hazardous Waste Site","","RCRA Hazardous Waste Sites"
"125458","2016BAZ3","ALBERTSONS NO 103","415 CLEVELAND BLVD","CALDWELL","Canyon","RCRA Hazardous Waste Sites","43.667223","-116.692939","RCRA Hazardous Waste Site","","RCRA Hazardous Waste Sites"
"125459","2016BAZ4","ALBERTSONS NO 162","5100 W OVERLAND RD","BOISE","Ada","RCRA Hazardous Waste Sites","43.591846","-116.245186","RCRA Hazardous Waste Site","","RCRA Hazardous Waste Sites"
"2610","2011BAZ197","ALBERTSONS NO 177","4700 N EAGLE RD","BOISE","Ada","RCRA Hazardous Waste Sites","43.647232","-116.352667","RCRA Hazardous Waste Site","","RCRA Hazardous Waste Sites"
"7926","2011BAZ207","ALBERTSONS NO 182 EAGLE","250 S EAGLE RD","EAGLE","Ada","RCRA Hazardous Waste Sites","43.69178","-116.35363","RCRA Hazardous Waste Site, Underground Storage Tanks","","RCRA Hazardous Waste Sites"
"2611","2011BAZ198","ALBERTSONS NO 192","2450 N BOGUS BASIN RD","BOISE","Ada","RCRA Hazardous Waste Sites","43.642223","-116.207662","RCRA Hazardous Waste Site","","RCRA Hazardous Waste Sites"
"2568","2011BAZ199","ALBERTSONS NO 8110","2700 REGAN AVE","BOISE","Ada","RCRA Hazardous Waste Sites","43.62808","-116.2242","RCRA Hazardous Waste Site, Underground Storage Tanks","","RCRA Hazardous Waste Sites"
"2612","2011BAZ216","ALBERTSONS PRINTING & SUPPLY","3705 E COMMERCIAL CT; 550 N EAGLE RD","MERIDIAN","Ada","RCRA Hazardous Waste Sites","43.609356","-116.346391","RCRA Hazardous Waste Site","","RCRA Hazardous Waste Sites"
"4756","2011BAZ5177","ALCHEMETRICS","9622 DELAWARE ST","BOISE","Ada","RCRA Hazardous Waste Sites","43.592139","-116.302053","RCRA Hazardous Waste Site","","RCRA Hazardous Waste Sites"
"2615","2011BAZ221","ALCHEM LABORATORIES","250 S BEECHWOOD DR STE 1","BOISE","Ada","RCRA Hazardous Waste Sites","43.602432","-116.271625","RCRA Hazardous Waste Site","","RCRA Hazardous Waste Sites"
"2616","2011BAZ222","ALCHEM LABORATORIES GC","104 W 31ST ST","GARDEN CITY","Ada","RCRA Hazardous Waste Sites","43.620351","-116.237258","RCRA Hazardous Waste Site","","RCRA Hazardous Waste Sites"
"2617","2011BAZ225","ALEXANDER CLARK GRAPHICS","10801 W EMERALD ST","BOISE","Ada","RCRA Hazardous Waste Sites","43.611982","-116.317015","RCRA Hazardous Waste Site","","RCRA Hazardous Waste Sites"
"2619","2011BAZ227","ALEXANDER CLARK INC","704 W MAIN ST","BOISE","Ada","RCRA Hazardous Waste Sites","43.615074","-116.202352","RCRA Hazardous Waste Site","","RCRA Hazardous Waste Sites"
"2620","2011BAZ229","ALICE HALL/MARSHALLS AUTO","865 D ST","LEWISTON","Nez Perce","RCRA Hazardous Waste Sites","46.420692","-117.021235","RCRA Hazardous Waste Site, Underground Storage Tanks","","RCRA Hazardous Waste Sites"
"2621","2011BAZ230","ALK ABELLO SOURCE MATERIALS INC","448 S LOCHSA ST","POST FALLS","Kootenai","RCRA Hazardous Waste Sites","47.704009","-117.003451","RCRA Hazardous Waste Site","","RCRA Hazardous Waste Sites"
"112720","2011BAZ408","ALLEN DRUG","4 N MAIN ST","MALAD CITY","Oneida","RCRA Hazardous Waste Sites","42.185955","-112.244945","RCRA Hazardous Waste Site","","RCRA Hazardous Waste Sites"
"2502","2011BAZ238","ALLEN FARMS","3378 S PLEASANT VALLEY RD","AMERICAN FALLS","Power","RCRA Hazardous Waste Sites","42.790669","-112.959736","RCRA Hazardous Waste Site, Underground Storage Tanks","","RCRA Hazardous Waste Sites"
"2628","2011BAZ239","ALLEN J DARCE CO","1448 TUMBLEWEED TRAIL","POCATELLO","Bannock","RCRA Hazardous Waste Sites","42.821812","-112.423937","RCRA Hazardous Waste Site","","RCRA Hazardous Waste Sites"
"2630","2011BAZ243","ALLENS POLE TREATING CO","9906 S TOPAZ RD","LAVA HOT SPRINGS","Bannock","RCRA Hazardous Waste Sites","42.618693","-112.085141","RCRA Hazardous Waste Site","","RCRA Hazardous Waste Sites"
"2622","2011BAZ231","ALL FREIGHT TRANSPORTATION INC","4151 S FEDERAL WAY","BOISE","Ada","RCRA Hazardous Waste Sites","43.564692","-116.176282","RCRA Hazardous Waste Site","","RCRA Hazardous Waste Sites"
"2623","2011BAZ232","ALL HOURS AUTO SALVAGE","3110 CALDWELL BLVD","NAMPA","Canyon","RCRA Hazardous Waste Sites","43.618495","-116.619558","RCRA Hazardous Waste Site","","RCRA Hazardous Waste Sites"
"2624","2011BAZ233","ALL HOURS PUMPING","512 ITHACA","CALDWELL","Canyon","RCRA Hazardous Waste Sites","43.674418","-116.681725","RCRA Hazardous Waste Site","","RCRA Hazardous Waste Sites"
"2505","2011BAZ244","ALLIED SEED COOPERATIVE INC","1917 E FARGO AVE","NAMPA","Canyon","RCRA Hazardous Waste Sites","43.601384","-116.547505","Leaking Underground Storage Tanks, RCRA Hazardous Waste Site, Underground Storage Tanks","","RCRA Hazardous Waste Sites"
"2793","2011BAZ576","ALLIED WELDERY LLC","418 N 2ND ST","COEUR D ALENE","Kootenai","RCRA Hazardous Waste Sites","47.676668","-116.783747","RCRA Hazardous Waste Site","","RCRA Hazardous Waste Sites"
"4069","2011BAZ3669","ALLOWAY ELECTRIC","502 E 45TH ST","GARDEN CITY","Ada","RCRA Hazardous Waste Sites","43.639325","-116.251304","RCRA Hazardous Waste Site","","RCRA Hazardous Waste Sites"
"4189","2011BAZ3977","ALLOWAY LIGHTING","1420 W GROVE ST","BOISE","Ada","RCRA Hazardous Waste Sites","43.619","-116.212022","RCRA Hazardous Waste Site","","RCRA Hazardous Waste Sites"
"125420","2015BAZ198","ALL SEASONS GARDEN AND FLORAL","31831 HWY 200 E","KOOTENAI","Bonner","RCRA Hazardous Waste Sites","48.309541","-116.521887","RCRA Hazardous Waste Site","","RCRA Hazardous Waste Sites"
"2625","2011BAZ235","ALL STAR FREIGHT","417 N CURTIS RD","BOISE","Ada","RCRA Hazardous Waste Sites","43.608050","-116.253660","RCRA Hazardous Waste Site","","RCRA Hazardous Waste Sites"
"3320","2011BAZ1879","ALPINE ARCHERY","3101 NORTH SOUTH HWY","LEWISTON","Nez Perce","RCRA Hazardous Waste Sites","46.43135","-116.985909","RCRA Hazardous Waste Site","","RCRA Hazardous Waste Sites"
"2633","2011BAZ249","ALPINE LUMBER SUPPLY","1400 N DIVISION","SANDPOINT","BONNER","RCRA Hazardous Waste Sites","48.287027","-116.568717","Brownfields, General Remediation, RCRA Hazardous Waste Site, Voluntary Cleanup Program","yes","RCRA Hazardous Waste Sites"
"13826","2011BAZ252","ALPINE MOTOR CO","476749 HWY 95 N (3230 HWY 95 N)","PONDERAY","Bonner","RCRA Hazardous Waste Sites","48.304","-116.545","RCRA Hazardous Waste Site, Underground Storage Tanks","","RCRA Hazardous Waste Sites"
"2508","2011BAZ251","ALPINE MOTORS","110 W N 2ND ST","GRANGEVILLE","Idaho","RCRA Hazardous Waste Sites","45.927069","-116.119829","RCRA Hazardous Waste Site","","RCRA Hazardous Waste Sites"
"2636","2011BAZ255","ALS AUTO SUPPLY","402 S NEIDER BLVD","COEUR D ALENE","Kootenai","RCRA Hazardous Waste Sites","47.706958","-116.792323","RCRA Hazardous Waste Site","","RCRA Hazardous Waste Sites"
"2509","2011BAZ256","ALS CAR CARE","8444 W FAIRVIEW AVE","BOISE","Ada","RCRA Hazardous Waste Sites","43.62015","-116.28729","Leaking Underground Storage Tanks, RCRA Hazardous Waste Site, Underground Storage Tanks","","RCRA Hazardous Waste Sites"
"2637","2011BAZ257","ALS CAR CARE INC","8511 W FAIRVIEW AVE","BOISE","Ada","RCRA Hazardous Waste Sites","43.619421","-116.288170","RCRA Hazardous Waste Site","","RCRA Hazardous Waste Sites"
"107658","2013BAZ395","ALS CAR CARE INC GROVE","1645 GROVE ST","BOISE","Ada","RCRA Hazardous Waste Sites","43.619656","-116.214457","RCRA Hazardous Waste Site","","RCRA Hazardous Waste Sites"
"2639","2011BAZ261","ALTONS TIRE","1900 SCHNEIDMILLER AVE","POST FALLS","Kootenai","RCRA Hazardous Waste Sites","47.712094","-116.917022","RCRA Hazardous Waste Site","","RCRA Hazardous Waste Sites"
"2640","2011BAZ262","ALTONS TIRE & AUTOMOTIVE INC","200 W APPLEWAY","COEUR D ALENE","Kootenai","RCRA Hazardous Waste Sites","47.700278","-116.786666","RCRA Hazardous Waste Site","","RCRA Hazardous Waste Sites"
"125489","2016BAZ25","ALTURAS ANALYTICS INC","1324 ALTURAS DR","MOSCOW","Latah","RCRA Hazardous Waste Sites","46.714153","-116.981693","RCRA Hazardous Waste Site","","RCRA Hazardous Waste Sites"
"2511","2011BAZ263","ALUMA GLASS INDUSTRIES INC","16265 STAR RD (previously 2715 N STAR RD)","NAMPA","Canyon","RCRA Hazardous Waste Sites","43.609","-116.49382","Leaking Underground Storage Tanks, RCRA Hazardous Waste Site, Underground Storage Tanks","","RCRA Hazardous Waste Sites"
"2641","2011BAZ265","ALURA LAWN","502 SHAVER AVE","CALDWELL","Canyon","RCRA Hazardous Waste Sites","43.666264","-116.700992","RCRA Hazardous Waste Site","","RCRA Hazardous Waste Sites"
"2643","2011BAZ268","AMALGAMATED RESEARCH INC","2531 ORCHARD DR E","TWIN FALLS","Twin Falls","RCRA Hazardous Waste Sites","42.53421","-114.434229","RCRA Hazardous Waste Site","","RCRA Hazardous Waste Sites"
"2644","2011BAZ269","AMALGAMATED SUGAR CO AMERICAN FALLS","S PLEASANT VALLEY RD","AMERICAN FALLS","Power","RCRA Hazardous Waste Sites","42.791811","-112.925774","RCRA Hazardous Waste Site","","RCRA Hazardous Waste Sites"
"2645","2011BAZ270","AMALGAMATED SUGAR CO LLC AMERICAN FALLS","2944 S FRONTAGE RD","AMERICAN FALLS","Power","RCRA Hazardous Waste Sites","42.770471","-112.862474","RCRA Hazardous Waste Site","","RCRA Hazardous Waste Sites"
"2646","2011BAZ271","AMALGAMATED SUGAR CO LLC BURLEY","8TH & PARK","BURLEY","Cassia","RCRA Hazardous Waste Sites","42.543524","-113.803802","RCRA Hazardous Waste Site","","RCRA Hazardous Waste Sites"
"7938","2011BAZ272","AMALGAMATED SUGAR CO LLC MINI-CASSIA","50 S 500 W","PAUL","Minidoka","RCRA Hazardous Waste Sites","42.61078","-113.759823","Leaking Underground Storage Tanks, RCRA Hazardous Waste Site, Underground Storage Tanks","","RCRA Hazardous Waste Sites"
"2513","2011BAZ273","AMALGAMATED SUGAR CO LLC MOUNTAIN HOME","1110 S 3RD W (E HWY 30 DRAWER Q)","MOUNTAIN HOME","Elmore","RCRA Hazardous Waste Sites","43.12189","-115.68952","RCRA Hazardous Waste Site, Underground Storage Tanks","","RCRA Hazardous Waste Sites"
"2514","2011BAZ274","AMALGAMATED SUGAR CO LLC NAMPA","138 W KARCHER AVE","NAMPA","Canyon","RCRA Hazardous Waste Sites","43.606074","-116.574457","General Remediation, Leaking Underground Storage Tanks, RCRA Hazardous Waste Site, Underground Storage Tanks","","RCRA Hazardous Waste Sites"
"2515","2011BAZ275","AMALGAMATED SUGAR CO LLC TWIN FALLS","2320 ORCHARD DR E (3700 N 3100 E)","TWIN FALLS","Twin Falls","RCRA Hazardous Waste Sites","42.533151","-114.432725","General Remediation, Leaking Underground Storage Tanks, RCRA Hazardous Waste Site, Underground Storage Tanks","","RCRA Hazardous Waste Sites"
"2516","2011BAZ277","AMBASSADOR AUTO SERVICE","525 W 3RD ST","MOSCOW","Latah","RCRA Hazardous Waste Sites","46.73217","-117.00801","Leaking Underground Storage Tanks, RCRA Hazardous Waste Site, Underground Storage Tanks","","RCRA Hazardous Waste Sites"
"7939","2011BAZ279","AMCOR","2240 S YELLOWSTONE HWY","IDAHO FALLS","Bonneville","RCRA Hazardous Waste Sites","43.47751","-112.04962","General Remediation, RCRA Hazardous Waste Site, Underground Storage Tanks","","RCRA Hazardous Waste Sites"
"2648","2011BAZ281","AMENS AUTO BODY","2131 HILLCREST","BURLEY","Cassia","RCRA Hazardous Waste Sites","42.530876","-113.766617","RCRA Hazardous Waste Site","","RCRA Hazardous Waste Sites"
"2649","2011BAZ282","AMERICAN ANALYTICAL SERVICES INC","59148 SILVER VALLEY RD","OSBURN","Shoshone","RCRA Hazardous Waste Sites","47.491238","-115.972516","RCRA Hazardous Waste Site","","RCRA Hazardous Waste Sites"
"2651","2011BAZ285","AMERICAN CARRIAGE CO","1710 W BROADWAY ST","IDAHO FALLS","Bonneville","RCRA Hazardous Waste Sites","43.496794","-112.065668","RCRA Hazardous Waste Site","","RCRA Hazardous Waste Sites"
"7943","2011BAZ287","AMERICAN FABRICATION","1300 PANCHERI DR","IDAHO FALLS","Bonneville","RCRA Hazardous Waste Sites","43.48977","-112.05398","RCRA Hazardous Waste Site, Underground Storage Tanks","","RCRA Hazardous Waste Sites"
"2654","2011BAZ290","AMERICAN FALLS AUTO SALES","201 HARRISON ST","AMERICAN FALLS","Power","RCRA Hazardous Waste Sites","42.785333","-112.853944","RCRA Hazardous Waste Site","","RCRA Hazardous Waste Sites"
"2655","2011BAZ291","AMERICAN FALLS LAUNDRY & DRY CLEANING","221 HARRISON ST","AMERICAN FALLS","Power","RCRA Hazardous Waste Sites","42.785191","-112.853479","RCRA Hazardous Waste Site","","RCRA Hazardous Waste Sites"
"2658","2011BAZ295","AMERICAN FALLS SD 381 INTERMEDIATE SCHOOL","254 TAYLOR","AMERICAN FALLS","Power","RCRA Hazardous Waste Sites","42.77978","-112.855654","RCRA Hazardous Waste Site","","RCRA Hazardous Waste Sites"
"2660","2011BAZ297","AMERICAN FALLS WW TREATMENT PLANT","S OF AMERICAN FALLS","AMERICAN FALLS","Power","RCRA Hazardous Waste Sites","42.774104","-112.871964","RCRA Hazardous Waste Site","","RCRA Hazardous Waste Sites"
"2661","2011BAZ298","AMERICAN FINE FOODS DIST CENTER","6865 BUTTE RD","NEW PLYMOUTH","Payette","RCRA Hazardous Waste Sites","43.989277","-116.853318","RCRA Hazardous Waste Site","","RCRA Hazardous Waste Sites"
"2662","2011BAZ299","AMERICAN HIGHWAYS INC","ROCKFORD RD","MORELAND","Bingham","RCRA Hazardous Waste Sites","","","RCRA Hazardous Waste Site","","RCRA Hazardous Waste Sites"
"2663","2011BAZ300","AMERICAN NATIONAL RED CROSS","601 W MAIN ST","BOISE","Ada","RCRA Hazardous Waste Sites","43.614323","-116.201538","RCRA Hazardous Waste Site","","RCRA Hazardous Waste Sites"
"2664","2011BAZ301","AMERICAN PAINTING & SANDBLASTING","14251 W HWY 30","POCATELLO","Bannock","RCRA Hazardous Waste Sites","","","RCRA Hazardous Waste Site","","RCRA Hazardous Waste Sites"
"112776","2015BAZ37","AMERICAN PETROLEUM ENVIRONMENTAL SERVICES INC 11TH","1521 11TH AVE N","NAMPA","Canyon","RCRA Hazardous Waste Sites","43.5953","-116.54121","RCRA Hazardous Waste Site","","RCRA Hazardous Waste Sites"
"6094","2011BAZ1165","AMERICAN PETROLEUM ENVIRONMENTAL SERVICES INC ENTERPRISE","4663 S ENTERPRISE ST","BOISE","Ada","RCRA Hazardous Waste Sites","43.55992","-116.19986","RCRA Hazardous Waste Site, Underground Storage Tanks","","RCRA Hazardous Waste Sites"
"112775","2015BAZ36","AMERICAN PETROLEUM ENVIRONMENTAL SERVICES INC RAILROAD","2600 W RAILROAD ST","NAMPA","Canyon","RCRA Hazardous Waste Sites","43.567258","-116.539001","RCRA Hazardous Waste Site","","RCRA Hazardous Waste Sites"
"2665","2011BAZ306","AMERICAN SUPER ABSORBENT TECH INC","1000 W SILVER VALLEY RD","SMELTERVILLE","Shoshone","RCRA Hazardous Waste Sites","","","RCRA Hazardous Waste Site","","RCRA Hazardous Waste Sites"
"2666","2011BAZ307","AMERICAN TRAILER MFG","8645 WESTPARK ST","BOISE","Ada","RCRA Hazardous Waste Sites","43.606622","-116.289513","RCRA Hazardous Waste Site","","RCRA Hazardous Waste Sites"
"6453","2011BAZ2408","AMERIPRIDE SERVICES INC POCATELLO","538 PERSHING AVE","POCATELLO","Bannock","RCRA Hazardous Waste Sites","42.88496","-112.449973","RCRA Hazardous Waste Site, Underground Storage Tanks, Voluntary Cleanup Program","","RCRA Hazardous Waste Sites"
"112020","2014BAZ154","AMTRAK SANDPOINT STATION","450 RAILROAD DEPOT RD","SANDPOINT","Bonner","RCRA Hazardous Waste Sites","48.276434","-116.545661","RCRA Hazardous Waste Site","","RCRA Hazardous Waste Sites"
"2670","2011BAZ315","AMVAC CHEMICAL","410 SIMPKIN LN","MARSING","Owyhee","RCRA Hazardous Waste Sites","43.552092","-116.806654","RCRA Hazardous Waste Site","","RCRA Hazardous Waste Sites"
"2671","2011BAZ316","ANATEK LABS INC","1282 ALTURAS DR","MOSCOW","Latah","RCRA Hazardous Waste Sites","46.719032","-116.982704","RCRA Hazardous Waste Site","","RCRA Hazardous Waste Sites"
"2672","2011BAZ318","ANDERSEN MFG INC","1293 E 6500 N","IDAHO FALLS","Bonneville","RCRA Hazardous Waste Sites","43.526004","-112.013903","RCRA Hazardous Waste Site","","RCRA Hazardous Waste Sites"
"2673","2011BAZ319","ANDERSON AEROMOTIVE INC","824 N D ST","GRANGEVILLE","Idaho","RCRA Hazardous Waste Sites","45.933127","-116.131109","RCRA Hazardous Waste Site","","RCRA Hazardous Waste Sites"
"2674","2011BAZ323","ANDERSON PLAZA","222 N 2ND ST STE 315","BOISE","Ada","RCRA Hazardous Waste Sites","43.613116","-116.194903","RCRA Hazardous Waste Site","","RCRA Hazardous Waste Sites"
"2676","2011BAZ327","ANDERSONS AUTOBODY","KOOTENAI CUTOFF RD 7 HWY 200","SANDPOINT","Bonner","RCRA Hazardous Waste Sites","48.308482","-116.529515","RCRA Hazardous Waste Site","","RCRA Hazardous Waste Sites"
"2677","2011BAZ328","ANDERSONS BODY & GLASS","146 ROOSEVELT ST","AMERICAN FALLS","Power","RCRA Hazardous Waste Sites","42.783541","-112.856471","RCRA Hazardous Waste Site","","RCRA Hazardous Waste Sites"
"2675","2011BAZ326","ANDERSON ST LAUNDERCENTER","165 E ANDERSON","IDAHO FALLS","Bonneville","RCRA Hazardous Waste Sites","43.511606","-112.032036","RCRA Hazardous Waste Site","","RCRA Hazardous Waste Sites"
"5775","2011BAZ7249","ANIMAL HEALTH INTERNATIONAL INC","321 N 21ST AVE","CALDWELL","Canyon","RCRA Hazardous Waste Sites","43.659609","-116.671229","RCRA Hazardous Waste Site","","RCRA Hazardous Waste Sites"
"7763","2011BAZ7248","ANIMAL HEALTH INTERNATIONAL INC TF","203 4TH AVE W","TWIN FALLS","Twin Falls","RCRA Hazardous Waste Sites","42.554735","-114.474598","Leaking Underground Storage Tanks, RCRA Hazardous Waste Site, Underground Storage Tanks","","RCRA Hazardous Waste Sites"
"2679","2011BAZ335","ANODIZERS INC","515 E 46TH ST NO 25","GARDEN CITY","Ada","RCRA Hazardous Waste Sites","43.640607","-116.251069","RCRA Hazardous Waste Site","","RCRA Hazardous Waste Sites"
"28643","2013BAZ274","ANODIZERS INC","504 E 46TH ST","GARDEN CITY","Ada","RCRA Hazardous Waste Sites","43.640697","-116.252848","RCRA Hazardous Waste Site","","RCRA Hazardous Waste Sites"
"2530","2011BAZ336","ANR FREIGHT","110 W MYRTLE ST","BOISE","Ada","RCRA Hazardous Waste Sites","43.60898","-116.19852","Leaking Underground Storage Tanks, RCRA Hazardous Waste Site, Underground Storage Tanks","","RCRA Hazardous Waste Sites"
"8534","2011BAZ2358","ANR FREIGHT SYSTEM INC","2055 GARRETT WAY","POCATELLO","Bannock","RCRA Hazardous Waste Sites","42.879078","-112.462996","Leaking Underground Storage Tanks, RCRA Hazardous Waste Site, Underground Storage Tanks","","RCRA Hazardous Waste Sites"
"2680","2011BAZ341","ANTIMONY CAMP MINE & MILL SITE","JOHNSON CREEK","YELLOW PINE","Valley","RCRA Hazardous Waste Sites","44.928387","-115.480428","Mining, RCRA Hazardous Waste Site","","RCRA Hazardous Waste Sites"
"14413","2012BAZ471","APACHE RIVER DBA DOUBLE L","307 S WARM SPRINGS WAY","HEYBURN","Minidoka","RCRA Hazardous Waste Sites","42.574842","-113.79212","RCRA Hazardous Waste Site","","RCRA Hazardous Waste Sites"
"2681","2011BAZ342","APACHE RIVER LLC DBA DOUBLE L","2698 LAKEVIEW RD","AMERICAN FALLS","Power","RCRA Hazardous Waste Sites","42.805947","-112.803942","RCRA Hazardous Waste Site, Underground Storage Tanks","","RCRA Hazardous Waste Sites"
"2682","2011BAZ343","APPLETON PRODUCE","1 APPLETON LN","WEISER","Washington","RCRA Hazardous Waste Sites","44.256972","-116.961806","RCRA Hazardous Waste Site","","RCRA Hazardous Waste Sites"
"4388","2011BAZ4425","APTINA LLC","1401 N KINGS RD","NAMPA","Canyon","RCRA Hazardous Waste Sites","43.596508","-116.534431","RCRA Hazardous Waste Site","","RCRA Hazardous Waste Sites"
"2684","2011BAZ348","ARCH CHEMICALS INC","1804-B N 20TH ST","NAMPA","Canyon","RCRA Hazardous Waste Sites","43.601123","-116.544288","RCRA Hazardous Waste Site","","RCRA Hazardous Waste Sites"
"2685","2011BAZ349","ARCHIES CLEANERS","505 KING ST","COTTONWOOD","Idaho","RCRA Hazardous Waste Sites","46.049346","-116.350001","RCRA Hazardous Waste Site","","RCRA Hazardous Waste Sites"
"2686","2011BAZ350","ARCHIVE DECORATIVE FINISHING","110 GULFSTREAM LN","HAILEY","Blaine","RCRA Hazardous Waste Sites","43.504268","-114.304033","RCRA Hazardous Waste Site","","RCRA Hazardous Waste Sites"
"2689","2011BAZ360","ARDS CONSTRUCTION LANDFILL","119 N 2400 E","ST ANTHONY","Fremont","RCRA Hazardous Waste Sites","43.899375","-111.678055","RCRA Hazardous Waste Site, Solid Waste","","RCRA Hazardous Waste Sites"
"2690","2011BAZ363","ARKOOSH BROTHERS INC","124 4TH AVE W","GOODING","Gooding","RCRA Hazardous Waste Sites","42.941684","-114.713199","RCRA Hazardous Waste Site","","RCRA Hazardous Waste Sites"
"7961","2011BAZ369","ARNOLD MACHINERY CO GC","111 E 39TH ST","GARDEN CITY","Ada","RCRA Hazardous Waste Sites","43.6281","-116.24508","RCRA Hazardous Waste Site, Underground Storage Tanks","","RCRA Hazardous Waste Sites"
"7962","2011BAZ370","ARNOLD MACHINERY CO IF","3330 N YELLOWSTONE HWY","IDAHO FALLS","Bonneville","RCRA Hazardous Waste Sites","43.526386","-111.987269","RCRA Hazardous Waste Site, Underground Storage Tanks","","RCRA Hazardous Waste Sites"
"2692","2011BAZ371","ARNOLD MACHINERY CO MERIDIAN","300 E OVERLAND RD","MERIDIAN","Ada","RCRA Hazardous Waste Sites","43.591688","-116.389132","RCRA Hazardous Waste Site","","RCRA Hazardous Waste Sites"
"2694","2011BAZ373","ARNOLD TERRELL PRINTING CO","206 E MAIN","REXBURG","Madison","RCRA Hazardous Waste Sites","43.82574","-111.777727","RCRA Hazardous Waste Site","","RCRA Hazardous Waste Sites"
"5323","2011BAZ6466","ARROW HEAVY EQUIPMENT CO","516 E 46TH ST","GARDEN CITY","Ada","RCRA Hazardous Waste Sites","43.641363","-116.252","RCRA Hazardous Waste Site","","RCRA Hazardous Waste Sites"
"2695","2011BAZ378","ARTCO INC","360 STATIONARY RD","REXBURG","Madison","RCRA Hazardous Waste Sites","43.851349","-111.772649","RCRA Hazardous Waste Site","","RCRA Hazardous Waste Sites"
"2696","2011BAZ379","ARTECH","520 E FRANKLIN RD","MERIDIAN","Ada","RCRA Hazardous Waste Sites","43.605377","-116.385355","RCRA Hazardous Waste Site","","RCRA Hazardous Waste Sites"
"2697","2011BAZ381","ARTICLE V TRUST","MILL RD 2 MI E OF ATLANTA","ATLANTA","Elmore","RCRA Hazardous Waste Sites","43.813510","-115.135081","RCRA Hazardous Waste Site","","RCRA Hazardous Waste Sites"
"27389","2013BAZ255","ARTISTRY OUTWEST TAXIMDERMY","409 N MAIN","WEIPPE","Clearwater","RCRA Hazardous Waste Sites","46.37892","-115.938528","RCRA Hazardous Waste Site","","RCRA Hazardous Waste Sites"
"2698","2011BAZ383","ASE INC","2028 KONKOLVILLE RD","OROFINO","Clearwater","RCRA Hazardous Waste Sites","46.482950","-116.208151","RCRA Hazardous Waste Site","","RCRA Hazardous Waste Sites"
"7965","2011BAZ384","ASGROW SEED CO FILER","IDAHO ST & NORTH ST","FILER","Twin Falls","RCRA Hazardous Waste Sites","42.573166","-114.611061","RCRA Hazardous Waste Site","","RCRA Hazardous Waste Sites"
"2378","2011BAZ82","A SHADE BETTER PAINTING","655 E KING ST","MERIDIAN","Ada","RCRA Hazardous Waste Sites","43.606380","-116.383807","RCRA Hazardous Waste Site","","RCRA Hazardous Waste Sites"
"7966","2011BAZ385","ASH GROVE CEMENT CO PLANT","230 CEMENT RD","INKOM","Bannock","RCRA Hazardous Waste Sites","42.79112","-112.25153","RCRA Hazardous Waste Site, Solid Waste, Underground Storage Tanks","","RCRA Hazardous Waste Sites"
"110484","2014BAZ87","ASLETT PROPERTY","5606 S HWY 93","JEROME","Jerome","RCRA Hazardous Waste Sites","42.686643","-114.438704","RCRA Hazardous Waste Site","","RCRA Hazardous Waste Sites"
"2702","2011BAZ394","ASPHALT EXPRESS INC","77 COTTONWOOD","POCATELLO","Bannock","RCRA Hazardous Waste Sites","42.87189","-112.4706","RCRA Hazardous Waste Site","","RCRA Hazardous Waste Sites"
"2551","2011BAZ398","ASSOCIATED DAIRIES","3310 S GEKELER LN","BOISE","Ada","RCRA Hazardous Waste Sites","43.51419","-114.31041","Leaking Underground Storage Tanks, RCRA Hazardous Waste Site, Underground Storage Tanks","","RCRA Hazardous Waste Sites"
"2706","2011BAZ406","ATHLETES CHOICE","5180 E SELTICE WAY NO B","POST FALLS","Kootenai","RCRA Hazardous Waste Sites","47.70532","-116.878271","RCRA Hazardous Waste Site","","RCRA Hazardous Waste Sites"
"2711","2011BAZ413","ATT AMERICAN FALLS","6.5 MI W OF AMERICAN FALLS","AMERICAN FALLS","Power","RCRA Hazardous Waste Sites","42.795775","-112.825581","RCRA Hazardous Waste Site","","RCRA Hazardous Waste Sites"
"7972","2011BAZ414","ATT BOISE IDMA L52067","619 W BANNOCK ST","BOISE","Ada","RCRA Hazardous Waste Sites","43.61642","-116.20085","RCRA Hazardous Waste Site, Underground Storage Tanks","","RCRA Hazardous Waste Sites"
"7973","2011BAZ415","ATT BOISE JCT","9 MI SE OF BOISE BLACKS CREEK RD","BOISE","Ada","RCRA Hazardous Waste Sites","43.48854","-116.02843","Leaking Underground Storage Tanks, RCRA Hazardous Waste Site, Underground Storage Tanks","","RCRA Hazardous Waste Sites"
"2712","2011BAZ416","ATT BURLEY R","5.8 MI SW OF BURLEY","BURLEY","Cassia","RCRA Hazardous Waste Sites","42.512705","-113.919028","RCRA Hazardous Waste Site","","RCRA Hazardous Waste Sites"
"2714","2011BAZ418","ATT COEUR D ALENE RADIO RELAY STATION","4 MI NW OF ROSE LAKE","ROSE LAKE","Kootenai","RCRA Hazardous Waste Sites","47.588839","-116.545424","RCRA Hazardous Waste Site","","RCRA Hazardous Waste Sites"
"2715","2011BAZ421","ATT GILMORE R","9.4 MI NW OF BIRCH CREEK","IDAHO FALLS","Lemhi","RCRA Hazardous Waste Sites","44.263262","-113.043479","RCRA Hazardous Waste Site","","RCRA Hazardous Waste Sites"
"2716","2011BAZ423","ATT INDIAN BUTTE R","8 MI SW OF HAGERMAN","HAGERMAN","Gooding","RCRA Hazardous Waste Sites","42.754001","-115.04605","RCRA Hazardous Waste Site","","RCRA Hazardous Waste Sites"
"2717","2011BAZ424","ATT INKOM","5 MI E SE OF INKOM","INKOM","Bannock","RCRA Hazardous Waste Sites","42.758474","-112.167897","RCRA Hazardous Waste Site","","RCRA Hazardous Waste Sites"
"110376","2013BAZ477","ATTI TINT","224 TROY RD","MOSCOW","Latah","RCRA Hazardous Waste Sites","46.725627","-116.99884","RCRA Hazardous Waste Site","","RCRA Hazardous Waste Sites"
"2718","2011BAZ425","ATT JEROME R","4.5 MI E OF JEROME (JEROME BUTTE)","JEROME","Jerome","RCRA Hazardous Waste Sites","42.73703","-114.421277","RCRA Hazardous Waste Site, Underground Storage Tanks","","RCRA Hazardous Waste Sites"
"4186","2011BAZ3972","ATT LEODORE","7.5 MI N OF LEODORE","LEODORE","Lemhi","RCRA Hazardous Waste Sites","44.762713","-113.345399","RCRA Hazardous Waste Site","","RCRA Hazardous Waste Sites"
"4286","2011BAZ4181","ATT MALAD CITY R","8 MI N OF MALAD CITY","MALAD CITY","Oneida","RCRA Hazardous Waste Sites","42.306602","-112.236049","RCRA Hazardous Waste Site","","RCRA Hazardous Waste Sites"
"2719","2011BAZ427","ATT MOUNTAIN HOME R","8.4 MI NE OF MOUNTAIN HOME","MOUNTAIN HOME","Elmore","RCRA Hazardous Waste Sites","43.20552","-115.565743","RCRA Hazardous Waste Site","","RCRA Hazardous Waste Sites"
"2720","2011BAZ428","ATT MULLAN","EXIT 0 I-90 7 MI E OF MULLAN","MULLAN","Shoshone","RCRA Hazardous Waste Sites","47.455556","-115.697435","RCRA Hazardous Waste Site","","RCRA Hazardous Waste Sites"
"4487","2011BAZ4643","ATT NAMPA","5.8 MI S OF NAMPA","NAMPA","Canyon","RCRA Hazardous Waste Sites","","","RCRA Hazardous Waste Site","","RCRA Hazardous Waste Sites"
"4686","2011BAZ5025","ATT PARMA","3.5 MI NNE OF PARMA","PARMA","Canyon","RCRA Hazardous Waste Sites","43.779773","-116.937694","RCRA Hazardous Waste Site","","RCRA Hazardous Waste Sites"
"2721","2011BAZ429","ATT POCATELLO","3411 HAWTHORNE RD","POCATELLO","Bannock","RCRA Hazardous Waste Sites","42.893994","-112.476505","RCRA Hazardous Waste Site, Underground Storage Tanks","","RCRA Hazardous Waste Sites"
"13910","2011BAZ5183","ATT POCATELLO JCT","3 MI W SW OF POCATELLO","POCATELLO","Bannock","RCRA Hazardous Waste Sites","","","RCRA Hazardous Waste Site","","RCRA Hazardous Waste Sites"
"2722","2011BAZ430","ATT RUPERT R","10.5 MI E OF RUPERT","RUPERT","Minidoka","RCRA Hazardous Waste Sites","","","RCRA Hazardous Waste Site","","RCRA Hazardous Waste Sites"
"28584","2013BAZ334","ATV BARN LLC","9873 N GOVT WAY STE B","HAYDEN","Kootenai","RCRA Hazardous Waste Sites","47.761691","-116.787258","RCRA Hazardous Waste Site","","RCRA Hazardous Waste Sites"
"2724","2011BAZ432","ATWOOD AUTO SALVAGE","11855 W HUBBARD","KUNA","Ada","RCRA Hazardous Waste Sites","43.515509","-116.32381","RCRA Hazardous Waste Site","","RCRA Hazardous Waste Sites"
"2726","2011BAZ436","AUSTINS EXPRESS INC","2516 DOC TAYLOR DR","TWIN FALLS","Twin Falls","RCRA Hazardous Waste Sites","42.538949","-114.432314","RCRA Hazardous Waste Site","","RCRA Hazardous Waste Sites"
"2727","2011BAZ437","AUTO BODY CENTER INC","3901 W CHINDEN BLVD","GARDEN CITY","Ada","RCRA Hazardous Waste Sites","43.627415","-116.24663","RCRA Hazardous Waste Site","","RCRA Hazardous Waste Sites"
"186104","2016BAZ84","AUTO BODY PAINT & SUPPLY","710 N FRANKLIN RD","NAMPA","Canyon","RCRA Hazardous Waste Sites","43.590652","-116.55242","RCRA Hazardous Waste Site","","RCRA Hazardous Waste Sites"
"2728","2011BAZ438","AUTO BODY PAINT & SUPPLY INC","339 4TH AVE W","TWIN FALLS","Twin Falls","RCRA Hazardous Waste Sites","42.555875","-114.476212","RCRA Hazardous Waste Site","","RCRA Hazardous Waste Sites"
"7977","2011BAZ439","AUTO BODY SPECIALISTS INC","1017 LUSK ST","BOISE","Ada","RCRA Hazardous Waste Sites","43.608346","-116.212224","RCRA Hazardous Waste Site, Underground Storage Tanks","","RCRA Hazardous Waste Sites"
"2729","2011BAZ440","AUTO CENTER","399 E GOULD ST","POCATELLO","Bannock","RCRA Hazardous Waste Sites","42.875742","-112.457817","RCRA Hazardous Waste Site","","RCRA Hazardous Waste Sites"
"2730","2011BAZ441","AUTO EMPORIUM SERVICE CENTER","1030 1/2 BRYDEN AVE","LEWISTON","Nez Perce","RCRA Hazardous Waste Sites","46.380311","-116.978232","RCRA Hazardous Waste Site","","RCRA Hazardous Waste Sites"
"2731","2011BAZ442","AUTO IMAGE AUTO SALES","2042 GARRETT WAY","POCATELLO","Bannock","RCRA Hazardous Waste Sites","42.880093","-112.461875","RCRA Hazardous Waste Site","","RCRA Hazardous Waste Sites"
"14163","2012BAZ244","AUTO LAB INC","97 PALOUSE RIVER DR","MOSCOW","Latah","RCRA Hazardous Waste Sites","46.71521","-117.002564","RCRA Hazardous Waste Site","","RCRA Hazardous Waste Sites"
"2734","2011BAZ447","AUTOMATED OFFICE SYSTEMS","1620 W RIVER ST","BOISE","Ada","RCRA Hazardous Waste Sites","43.61877","-116.216226","RCRA Hazardous Waste Site","","RCRA Hazardous Waste Sites"
"2560","2011BAZ448","AUTOMOTIVE COLLISION TECH INC","801 W AMITY RD","BOISE","Ada","RCRA Hazardous Waste Sites","43.56009","-116.19104","RCRA Hazardous Waste Site, Underground Storage Tanks","","RCRA Hazardous Waste Sites"
"6830","2011BAZ3719","AUTO PAINT & PARTS","1005 MAIN ST","LEWISTON","Nez Perce","RCRA Hazardous Waste Sites","46.419564","-117.020264","RCRA Hazardous Waste Site, Underground Storage Tanks","","RCRA Hazardous Waste Sites"
"2733","2011BAZ445","AUTO SHOP (THE)","325 E MAIN ST","GRANGEVILLE","Idaho","RCRA Hazardous Waste Sites","45.924936","-116.116129","RCRA Hazardous Waste Site","","RCRA Hazardous Waste Sites"
"2736","2011BAZ453","AVID AVIATION","928 LAKE LOWELL AVE","NAMPA","Canyon","RCRA Hazardous Waste Sites","43.561619","-116.590597","RCRA Hazardous Waste Site","","RCRA Hazardous Waste Sites"
"2738","2011BAZ456","AVISTA CORP CABINET GORGE HYD","HWY 200 8 MI E OF CLARK FORK (HWY 10)","CLARK FORK","Bonner","RCRA Hazardous Waste Sites","48.087139","-116.057875","RCRA Hazardous Waste Site, Underground Storage Tanks","","RCRA Hazardous Waste Sites"
"2737","2011BAZ455","AVISTA CORP CDA SERVICE CENTER","1735 N 15TH ST","COEUR D ALENE","Kootenai","RCRA Hazardous Waste Sites","47.692164","-116.765812","RCRA Hazardous Waste Site","","RCRA Hazardous Waste Sites"
"2561","2011BAZ457","AVISTA CORP KELLOGG","120 N HILL ST","KELLOGG","Shoshone","RCRA Hazardous Waste Sites","47.53903","-116.12469","RCRA Hazardous Waste Site, Underground Storage Tanks","","RCRA Hazardous Waste Sites"
"2739","2011BAZ458","AVISTA CORP POST FALLS HYD","1 MI W OF SPOKANE ST","POST FALLS","Kootenai","RCRA Hazardous Waste Sites","47.709408","-116.96059","RCRA Hazardous Waste Site","","RCRA Hazardous Waste Sites"
"2740","2011BAZ459","AVISTA CORP RATHDRUM TURBINE","5999 BOEKEL RD","RATHDRUM","Kootenai","RCRA Hazardous Waste Sites","47.803427","-116.867151","RCRA Hazardous Waste Site","","RCRA Hazardous Waste Sites"
"112787","2015BAZ46","AVISTA SUNSHINE SUBSTATION","2174 BIG CREEK RD","KELLOGG","Shoshone","RCRA Hazardous Waste Sites","47.502727","-116.071839","RCRA Hazardous Waste Site","","RCRA Hazardous Waste Sites"
"2379","2011BAZ83","A V NELSON & SONS","2164 NE 10TH","PAYETTE","Payette","RCRA Hazardous Waste Sites","44.057712","-116.907397","RCRA Hazardous Waste Site","","RCRA Hazardous Waste Sites"
"2742","2011BAZ463","B & A AUTOMOTIVE","117 E 37TH ST","GARDEN CITY","Ada","RCRA Hazardous Waste Sites","43.625843","-116.241372","RCRA Hazardous Waste Site","","RCRA Hazardous Waste Sites"
"2753","2011BAZ483","BABBELS CLEANERS INC","228 SHOSHONE ST E","TWIN FALLS","Twin Falls","RCRA Hazardous Waste Sites","42.556891","-114.468102","RCRA Hazardous Waste Site","","RCRA Hazardous Waste Sites"
"111970","2014BAZ130","BACK ON THE ROAD AGAIN AUTO BODY","703 MAIN AVE E","TWIN FALLS","Twin Falls","RCRA Hazardous Waste Sites","42.550474","-114.461917","RCRA Hazardous Waste Site","","RCRA Hazardous Waste Sites"
"2576","2011BAZ489","BAGEL BAKERY","407 W MAIN ST","BOISE","Ada","RCRA Hazardous Waste Sites","43.61323","-116.19947","Leaking Underground Storage Tanks, RCRA Hazardous Waste Site, Underground Storage Tanks","","RCRA Hazardous Waste Sites"
"2756","2011BAZ497","BAIRDS DRY CLEANERS BROADWAY","2202 BROADWAY AVE","BOISE","Ada","RCRA Hazardous Waste Sites","43.584209","-116.193303","RCRA Hazardous Waste Site","","RCRA Hazardous Waste Sites"
"2757","2011BAZ498","BAIRDS DRY CLEANERS FAIRVIEW","5702 W FAIRVIEW AVE","BOISE","Ada","RCRA Hazardous Waste Sites","43.61952","-116.252697","RCRA Hazardous Waste Site","","RCRA Hazardous Waste Sites"
"2581","2011BAZ499","BAIRDS DRY CLEANERS N 8TH","902 N 8TH ST","BOISE","Ada","RCRA Hazardous Waste Sites","43.62206","-116.19719","Leaking Underground Storage Tanks, RCRA Hazardous Waste Site, Underground Storage Tanks, Voluntary Cleanup Program","","RCRA Hazardous Waste Sites"
"2758","2011BAZ501","BAKER TRUCK SERVICE INC","407 N C ST","GRANGEVILLE","Idaho","RCRA Hazardous Waste Sites","45.929576","-116.127977","RCRA Hazardous Waste Site, Underground Storage Tanks","","RCRA Hazardous Waste Sites"
"2760","2011BAZ503","BALDWIN RESIDENCE","7101 E SYRINGA RD","HAYDEN LAKE","Kootenai","RCRA Hazardous Waste Sites","47.759147","-116.691928","RCRA Hazardous Waste Site","","RCRA Hazardous Waste Sites"
"2761","2011BAZ505","BANCROFT CONVENIENCE STORE","20 S MAIN ST","BANCROFT","Caribou","RCRA Hazardous Waste Sites","42.720443","-111.884906","RCRA Hazardous Waste Site","","RCRA Hazardous Waste Sites"
"2762","2011BAZ510","BANN & BANN AUTO WORKS","2812 CLEARWATER AVE","LEWISTON","Nez Perce","RCRA Hazardous Waste Sites","46.418180","-116.991579","RCRA Hazardous Waste Site","","RCRA Hazardous Waste Sites"
"186085","2016BAZ66","BANNOCK CO COURTHOUSE","624 E CENTER ST","POCATELLO","Bannock","RCRA Hazardous Waste Sites","42.867045","-112.443364","RCRA Hazardous Waste Site","","RCRA Hazardous Waste Sites"
"2587","2011BAZ514","BANNOCK REGIONAL MEDICAL CTR","651 MEMORIAL DR","POCATELLO","Bannock","RCRA Hazardous Waste Sites","42.867024","-112.431577","RCRA Hazardous Waste Site, Underground Storage Tanks","","RCRA Hazardous Waste Sites"
"110520","2014BAZ106","BARCLAY MECHANICAL SERVICES","490 W 100 S (HWY 25)","PAUL","MINIDOKA","RCRA Hazardous Waste Sites","42.6053","-113.7621","RCRA Hazardous Waste Site","","RCRA Hazardous Waste Sites"
"2765","2011BAZ518","BARGER MATTSON INC","1155 ADDISON AVE W","TWIN FALLS","Twin Falls","RCRA Hazardous Waste Sites","42.563826","-114.511658","RCRA Hazardous Waste Site","","RCRA Hazardous Waste Sites"
"2766","2011BAZ521","BARNES INC","4728 HATWAI RD","LEWISTON","Nez Perce","RCRA Hazardous Waste Sites","46.436884","-116.962332","RCRA Hazardous Waste Site","","RCRA Hazardous Waste Sites"
"2767","2011BAZ523","BASF WYANDOTTE CORP MILL","209 CROOKHAM","CALDWELL","Canyon","RCRA Hazardous Waste Sites","43.66804","-116.701452","RCRA Hazardous Waste Site","","RCRA Hazardous Waste Sites"
"8000","2011BAZ526","BASIC AMERICAN FOODS BLACKFOOT","415 W COLLINS RD ( 415 W COLLINS SIDING RD)","BLACKFOOT","Bingham","RCRA Hazardous Waste Sites","43.20355","-112.37981","RCRA Hazardous Waste Site, Underground Storage Tanks","","RCRA Hazardous Waste Sites"
"2768","2011BAZ530","BASS AUTO BODY","9675 HWY 45","NAMPA","Canyon","RCRA Hazardous Waste Sites","43.512628","-116.573968","RCRA Hazardous Waste Site","","RCRA Hazardous Waste Sites"
"2769","2011BAZ531","BASTERRECHEA DISTRIBUTING INC","1992 E 1775 S","GOODING","Gooding","RCRA Hazardous Waste Sites","42.942612","-114.694314","RCRA Hazardous Waste Site","","RCRA Hazardous Waste Sites"
"2770","2011BAZ533","BATHCREST","272 E 5TH STE C","MERIDIAN","Ada","RCRA Hazardous Waste Sites","43.606682","-116.385890","RCRA Hazardous Waste Site","","RCRA Hazardous Waste Sites"
"2772","2011BAZ535","BATTERY EXCHANGE (THE)","105 MUELLER LN","CALDWELL","Canyon","RCRA Hazardous Waste Sites","","","RCRA Hazardous Waste Site","","RCRA Hazardous Waste Sites"
"2771","2011BAZ534","BATT TRUCKING","121 N 21ST AVE","CALDWELL","Canyon","RCRA Hazardous Waste Sites","43.658279","-116.672884","RCRA Hazardous Waste Site","","RCRA Hazardous Waste Sites"
"2773","2011BAZ537","BAUERS REPAIR","HWY 95 MI 499","NAPLES","Boundary","RCRA Hazardous Waste Sites","48.601541","-116.37537","RCRA Hazardous Waste Site","","RCRA Hazardous Waste Sites"
"2743","2011BAZ464","B & A WILSON BATTERY SERVICE","CEDAR RD","KENDRICK","Latah","RCRA Hazardous Waste Sites","","","RCRA Hazardous Waste Site","","RCRA Hazardous Waste Sites"
"2744","2011BAZ465","B & B MARKET","310 S ONEIDA HWY 24","RUPERT","Minidoka","RCRA Hazardous Waste Sites","42.610036","-113.678218","RCRA Hazardous Waste Site","","RCRA Hazardous Waste Sites"
"2745","2011BAZ467","B & C BODY SHOP","500 BELL DR","KETCHUM","Blaine","RCRA Hazardous Waste Sites","43.687332","-114.368582","RCRA Hazardous Waste Site","","RCRA Hazardous Waste Sites"
"2780","2011BAZ546","BCT INC","954 W JEFFERSON ST","BOISE","Ada","RCRA Hazardous Waste Sites","43.619161","-116.203017","RCRA Hazardous Waste Site","","RCRA Hazardous Waste Sites"
"2746","2011BAZ468","B & D FOODS INC","3491 S TK AVE","BOISE","Ada","RCRA Hazardous Waste Sites","43.570743","-116.192112","RCRA Hazardous Waste Site","","RCRA Hazardous Waste Sites"
"2781","2011BAZ548","BEACON LIGHT PRODUCTS INC","723 W TAYLOR AVE","MERIDIAN","Ada","RCRA Hazardous Waste Sites","43.6066","-116.402895","RCRA Hazardous Waste Site","","RCRA Hazardous Waste Sites"
"8004","2011BAZ549","BEAKON BEAN CO MILL","510 1ST AVE E","GOODING","Gooding","RCRA Hazardous Waste Sites","42.94473","-114.70998","RCRA Hazardous Waste Site, Underground Storage Tanks","","RCRA Hazardous Waste Sites"
"2787","2011BAZ562","BEAR VALLEY MINERALS INC","VALLEY CNTY","CASCADE","Valley","RCRA Hazardous Waste Sites","","","RCRA Hazardous Waste Site","","RCRA Hazardous Waste Sites"
"2788","2011BAZ564","BEATTY","T3N R1E SEC 9 SWSE & SESE QUARTERS(UPRR EASMENT JUST S OF 301 N CLOVERDALE RD)","BOISE","Ada","RCRA Hazardous Waste Sites","43.608204","-116.336141","RCRA Hazardous Waste Site","","RCRA Hazardous Waste Sites"
"2597","2011BAZ567","BECO CONSTRUCTION CO INC","4697 HAROLDSEN DR","IDAHO FALLS","Bonneville","RCRA Hazardous Waste Sites","43.53811","-112.00672","RCRA Hazardous Waste Site, Underground Storage Tanks","","RCRA Hazardous Waste Sites"
"2789","2011BAZ568","BEDINI ELECTRONICS","5540 E SELTICE WAY NO B","POST FALLS","Kootenai","RCRA Hazardous Waste Sites","47.704917","-116.873849","RCRA Hazardous Waste Site","","RCRA Hazardous Waste Sites"
"2791","2011BAZ571","BELL EQUIPMENT INC","118 W SOUTH ST","GRANGEVILLE","Idaho","RCRA Hazardous Waste Sites","45.925321","-116.120451","RCRA Hazardous Waste Site, Underground Storage Tanks","","RCRA Hazardous Waste Sites"
"27647","2012BAZ480","BELLS AUTOMOTIVE","160 E 4TH ST","KUNA","Ada","RCRA Hazardous Waste Sites","43.492617","-116.412836","RCRA Hazardous Waste Site","","RCRA Hazardous Waste Sites"
"2796","2011BAZ580","BENEWAH ST MARIES SOLID WASTE","2 MI SE OF ST MARIES HWY 3","ST MARIES","Benewah","RCRA Hazardous Waste Sites","47.289047","-116.520139","RCRA Hazardous Waste Site, Solid Waste","","RCRA Hazardous Waste Sites"
"14408","2012BAZ467","BENNETTS TRUCK & EQUIPMENT REPAIR","200 W AVE C","JEROME","Jerome","RCRA Hazardous Waste Sites","42.721235","-114.520444","RCRA Hazardous Waste Site","","RCRA Hazardous Waste Sites"
"2800","2011BAZ587","BENNYS AUTO BODY & CUSTOM PAINT","3680 W SELTICE WAY STE A","POST FALLS","Kootenai","RCRA Hazardous Waste Sites","47.715821","-116.997551","RCRA Hazardous Waste Site","","RCRA Hazardous Waste Sites"
"4033","2011BAZ3590","BENNYZ ROD SHOP","1911 ELECTRA LN","HAILEY","Blaine","RCRA Hazardous Waste Sites","43.501996","-114.302554","RCRA Hazardous Waste Site","","RCRA Hazardous Waste Sites"
"110508","2014BAZ94","BENTZ BOATS","155 SOUTHPORT AVE","LEWISTON","NEZ PERCE","RCRA Hazardous Waste Sites","46.368663","-117.032702","RCRA Hazardous Waste Site","","RCRA Hazardous Waste Sites"
"8016","2011BAZ590","BERGER & CO DECLO","201 1ST W AVE","DECLO","Cassia","RCRA Hazardous Waste Sites","42.51838","-113.62926","RCRA Hazardous Waste Site, Underground Storage Tanks","","RCRA Hazardous Waste Sites"
"2602","2011BAZ591","BERGER & CO EDEN","420 N MAIN","EDEN","Jerome","RCRA Hazardous Waste Sites","42.60861","-114.20901","RCRA Hazardous Waste Site, Underground Storage Tanks","","RCRA Hazardous Waste Sites"
"2803","2011BAZ592","BERGER & CO JEROME","216 W B ST","JEROME","Jerome","RCRA Hazardous Waste Sites","42.722252","-114.520723","RCRA Hazardous Waste Site, Underground Storage Tanks","","RCRA Hazardous Waste Sites"
"2804","2011BAZ593","BERGER & CO PAUL","1150 W 70 S (RT 2)","PAUL","Minidoka","RCRA Hazardous Waste Sites","","","RCRA Hazardous Waste Site, Underground Storage Tanks","","RCRA Hazardous Waste Sites"
"13933","2011BAZ595","BERGER & CO WENDELL","1999 NE FRONTAGE RD","WENDELL","Gooding","RCRA Hazardous Waste Sites","42.763190","-114.694129","RCRA Hazardous Waste Site","","RCRA Hazardous Waste Sites"
"2808","2011BAZ599","BERNARD AASE DBA AA TRANSPORT","0.5 MI E OF CHALLIS","CHALLIS","Custer","RCRA Hazardous Waste Sites","44.520956","-114.216072","RCRA Hazardous Waste Site","","RCRA Hazardous Waste Sites"
"2809","2011BAZ601","BERNARDS TOWING & COMPLETE REPAIR","608 THAIN RD","LEWISTON","Nez Perce","RCRA Hazardous Waste Sites","46.372271","-116.96465","RCRA Hazardous Waste Site","","RCRA Hazardous Waste Sites"
"2810","2011BAZ602","BERNIE LACEY AUTOBODY & PAINT","105 E 40TH ST","GARDEN CITY","Ada","RCRA Hazardous Waste Sites","43.628776","-116.246438","RCRA Hazardous Waste Site","","RCRA Hazardous Waste Sites"
"125408","2015BAZ190","BEST BATH SYSTEMS","679 S BEST BATH RD","KUNA","Ada","RCRA Hazardous Waste Sites","43.482033","-116.408905","RCRA Hazardous Waste Site","","RCRA Hazardous Waste Sites"
"14213","2012BAZ29","BEST BATH SYSTEMS INC","723 GARBER","CALDWELL","Canyon","RCRA Hazardous Waste Sites","43.665","-116.708","RCRA Hazardous Waste Site","","RCRA Hazardous Waste Sites"
"2813","2011BAZ606","BEST RADIATOR","3122 HATWAI RD","LEWISTON","Nez Perce","RCRA Hazardous Waste Sites","46.431679","-116.984851","RCRA Hazardous Waste Site","","RCRA Hazardous Waste Sites"
"2814","2011BAZ607","BEST WOODWORKING","3313 BROWN ST NO 1","GARDEN CITY","Ada","RCRA Hazardous Waste Sites","43.621009","-116.24005","RCRA Hazardous Waste Site","","RCRA Hazardous Waste Sites"
"2815","2011BAZ608","BEST WOODWORKING INC","11527 W FAIRVIEW AVE","BOISE","Ada","RCRA Hazardous Waste Sites","43.619433","-116.326834","RCRA Hazardous Waste Site","","RCRA Hazardous Waste Sites"
"13945","2011BAZ614","BFI BOISE","11199 W EXECUTIVE DR","BOISE","Ada","RCRA Hazardous Waste Sites","43.609","-116.321","RCRA Hazardous Waste Site, Underground Storage Tanks","","RCRA Hazardous Waste Sites"
"2818","2011BAZ615","BFI OF IDAHO INC NAMPA","424 SUGAR AVE","NAMPA","Canyon","RCRA Hazardous Waste Sites","43.588597","-116.542865","RCRA Hazardous Waste Site","","RCRA Hazardous Waste Sites"
"2819","2011BAZ616","BHS ACQUISITIONS GW TANK SITE","1801 N 20TH ST","NAMPA","Canyon","RCRA Hazardous Waste Sites","43.600815","-116.547744","RCRA Hazardous Waste Site","","RCRA Hazardous Waste Sites"
"2606","2011BAZ617","BHS ACQUISITIONS INC","1717 E FARGO AVE","NAMPA","Canyon","RCRA Hazardous Waste Sites","43.601314","-116.549949","RCRA Hazardous Waste Site, Underground Storage Tanks","","RCRA Hazardous Waste Sites"
"2821","2011BAZ621","BIG JAKES QUICK LUBE & OIL","28 HWY 95 N","GRANGEVILLE","Idaho","RCRA Hazardous Waste Sites","45.928816","-116.131833","RCRA Hazardous Waste Site","","RCRA Hazardous Waste Sites"
"14297","2012BAZ366","BIG R STORE","170 E KATHLEEN AVE","COEUR D ALENE","Kootenai","RCRA Hazardous Waste Sites","47.71522","-116.783312","RCRA Hazardous Waste Site","","RCRA Hazardous Waste Sites"
"2824","2011BAZ624","BIG WOOD BODY & PAINT","714 N MAIN ST","BELLEVUE","Blaine","RCRA Hazardous Waste Sites","43.472317","-114.264057","RCRA Hazardous Waste Site","","RCRA Hazardous Waste Sites"
"2607","2011BAZ625","BIG Y TRUCK STOP 1500","2301 E SHERMAN","COEUR D ALENE","Kootenai","RCRA Hazardous Waste Sites","47.672799","-116.752881","Leaking Underground Storage Tanks, RCRA Hazardous Waste Site, Underground Storage Tanks","","RCRA Hazardous Waste Sites"
"2826","2011BAZ629","BILLS AUTO CLINIC","560 S ASH","BLACKFOOT","Bingham","RCRA Hazardous Waste Sites","43.186095","-112.350807","RCRA Hazardous Waste Site","","RCRA Hazardous Waste Sites"
"13959","2011BAZ641","BINGHAM COOPERATIVE INC","477 W HWY 26","BLACKFOOT","Bingham","RCRA Hazardous Waste Sites","43.20986","-112.3918","RCRA Hazardous Waste Site, Underground Storage Tanks","","RCRA Hazardous Waste Sites"
"5937","2011BAZ636","BINGHAM CO ROAD & BRIDGE BLACKFOOT","83 FRONTAGE RD","BLACKFOOT","Bingham","RCRA Hazardous Waste Sites","43.19561","-112.36843","Leaking Underground Storage Tanks, RCRA Hazardous Waste Site, Underground Storage Tanks","","RCRA Hazardous Waste Sites"
"5938","2011BAZ637","BINGHAM CO ROAD & BRIDGE SHELLEY","355 S EMERSON AVE","SHELLEY","Bingham","RCRA Hazardous Waste Sites","43.37665","-112.12565","RCRA Hazardous Waste Site, Underground Storage Tanks","","RCRA Hazardous Waste Sites"
"2828","2011BAZ638","BINGHAM CO SOLID WASTE TRANSFER STATION","690 W HWY 26","BLACKFOOT","Bingham","RCRA Hazardous Waste Sites","43.231922","-112.433138","RCRA Hazardous Waste Site","","RCRA Hazardous Waste Sites"
"110549","2014BAZ110","BINGHAM MEMORIAL HOSPITAL","98 POPLAR ST","BLACKFOOT","BINGHAM","RCRA Hazardous Waste Sites","43.1933","-112.346907","RCRA Hazardous Waste Site","","RCRA Hazardous Waste Sites"
"2830","2011BAZ643","BIOFUELBOX CORP PLT 1","2775 NEU RD","AMERICAN FALLS","Power","RCRA Hazardous Waste Sites","42.794731","-112.831877","RCRA Hazardous Waste Site, Underground Storage Tanks","","RCRA Hazardous Waste Sites"
"2831","2011BAZ644","BIOMYNE TECHNOLOGY CO","301 BELL DR STE 61","KETCHUM","Blaine","RCRA Hazardous Waste Sites","43.686791","-114.368596","RCRA Hazardous Waste Site","","RCRA Hazardous Waste Sites"
"2832","2011BAZ649","BI-RITE PRODUCTS INC WAREHOUSES","305 WALL ST","TWIN FALLS","Twin Falls","RCRA Hazardous Waste Sites","42.553922","-114.477666","RCRA Hazardous Waste Site","","RCRA Hazardous Waste Sites"
"28645","2013BAZ272","BITCH CREEK RANCH","15007 N 2000 W","TETONIA","Teton","RCRA Hazardous Waste Sites","43.946112","-111.134225","General Remediation, RCRA Hazardous Waste Site","","RCRA Hazardous Waste Sites"
"2752","2011BAZ480","B JAMMIN PRODUCE","2000 W DEER FLAT RD","KUNA","Ada","RCRA Hazardous Waste Sites","43.502907","-116.438163","RCRA Hazardous Waste Site","","RCRA Hazardous Waste Sites"
"2747","2011BAZ470","B & K FABRICATORS","1709 S LIBERTY ST","BOISE","Ada","RCRA Hazardous Waste Sites","43.582630","-116.261110","RCRA Hazardous Waste Site","","RCRA Hazardous Waste Sites"
"5946","2011BAZ665","BLACKFOOT ANIMAL CLINIC","401 W COLLINS RD","BLACKFOOT","Bingham","RCRA Hazardous Waste Sites","43.20154","-112.37611","RCRA Hazardous Waste Site, Underground Storage Tanks","","RCRA Hazardous Waste Sites"
"8037","2011BAZ669","BLACKFOOT MOTOR","369 W BRIDGE ST","BLACKFOOT","Bingham","RCRA Hazardous Waste Sites","43.191075","-112.348599","RCRA Hazardous Waste Site, Underground Storage Tanks","","RCRA Hazardous Waste Sites"
"5950","2011BAZ670","BLACKFOOT MUNICIPAL AIRPORT","1311 AIRPORT RD","BLACKFOOT","Bingham","RCRA Hazardous Waste Sites","43.20727","-112.33477","RCRA Hazardous Waste Site, Underground Storage Tanks","","RCRA Hazardous Waste Sites"
"5950","2011BAZ670","BLACKFOOT MUNICIPAL AIRPORT","1311 AIRPORT RD","BLACKFOOT","Bingham","RCRA Hazardous Waste Sites","43.20727","-112.33477","RCRA Hazardous Waste Site, Underground Storage Tanks","","RCRA Hazardous Waste Sites"
"111770","2014BAZ125","BLACK PINE CUSTOM CABINETS","197 CANYON ST","TWIN FALLS","Twin Falls","RCRA Hazardous Waste Sites","42.547041","-114.46236","RCRA Hazardous Waste Site","","RCRA Hazardous Waste Sites"
"2835","2011BAZ661","BLACK PINE MINING INC","JUNIPER EXIT 23 MI NW OF SNOWVILLE","MALTA","Cassia","RCRA Hazardous Waste Sites","42.088016","-113.045399","Mining, RCRA Hazardous Waste Site","","RCRA Hazardous Waste Sites"
"110511","2014BAZ97","BLACK PROPERTY WIRE BURN SITE","2201 W HWY 19","HOMEDALE","OWYHEE","RCRA Hazardous Waste Sites","43.624105","-116.976305","RCRA Hazardous Waste Site","","RCRA Hazardous Waste Sites"
"4603","2011BAZ4869","BLAINE CO LANDFILL","110 OHIO GULCH RD","HAILEY","Blaine","RCRA Hazardous Waste Sites","43.577741","-114.295783","RCRA Hazardous Waste Site, Solid Waste","","RCRA Hazardous Waste Sites"
"2840","2011BAZ679","BLAINE CO SHERIFF OFFICE","300 BLK BROADFORD HIGHLANDS","HAILEY","Blaine","RCRA Hazardous Waste Sites","43.467933","-114.283047","RCRA Hazardous Waste Site","","RCRA Hazardous Waste Sites"
"2841","2011BAZ681","BLAINE LARSEN PROCESSING INC","1 MI E OF OLD HWY 91; 5 MI S OF DUBOIS; T9N R36E S28 NENE;  BLK 1 WACO SIDING","DUBOIS","Clark","RCRA Hazardous Waste Sites","44.084562","-112.219976","General Remediation, RCRA Hazardous Waste Site","","RCRA Hazardous Waste Sites"
"2842","2011BAZ684","BLAKE TRAILERS INC","10836 STATE ST","STAR","Ada","RCRA Hazardous Waste Sites","43.692281","-116.488573","RCRA Hazardous Waste Site","","RCRA Hazardous Waste Sites"
"3228","2011BAZ1657","BLANK TO REUSE dab","","","","RCRA Hazardous Waste Sites","","","RCRA Hazardous Waste Site","","RCRA Hazardous Waste Sites"
"27387","2013BAZ257","blank to reuse JIM","","","","RCRA Hazardous Waste Sites","0","0","RCRA Hazardous Waste Site","","RCRA Hazardous Waste Sites"
"5106","2011BAZ5920","blank to reuse SIE","","","","RCRA Hazardous Waste Sites","0","0","RCRA Hazardous Waste Site","","RCRA Hazardous Waste Sites"
"8045","2011BAZ691","BLICK TRUCKING","221 E MAIN","CASTLEFORD","Twin Falls","RCRA Hazardous Waste Sites","42.520819","-114.868807","General Remediation, RCRA Hazardous Waste Site, Underground Storage Tanks","","RCRA Hazardous Waste Sites"
"3543","2011BAZ2382","BLOOM PROPERTY","11775 W HWY 53","RATHDRUM","Kootenai","RCRA Hazardous Waste Sites","47.785844","-116.942541","RCRA Hazardous Waste Site","","RCRA Hazardous Waste Sites"
"112823","2015BAZ77","BLOWN MOTOR","11944 N REED RD","HAYDEN","Kootenai","RCRA Hazardous Waste Sites","47.780269","-116.796504","RCRA Hazardous Waste Site","","RCRA Hazardous Waste Sites"
"2847","2011BAZ701","BLUEBIRD RECYCLING INC","4885 INDUSTRIAL WAY","COEUR D ALENE","Kootenai","RCRA Hazardous Waste Sites","47.725252","-116.837173","RCRA Hazardous Waste Site","","RCRA Hazardous Waste Sites"
"2845","2011BAZ699","BLUE MOUNTAIN AGRI SUPPORT INC","620 THAIN RD","LEWISTON","Nez Perce","RCRA Hazardous Waste Sites","46.371806","-116.963555","RCRA Hazardous Waste Site","","RCRA Hazardous Waste Sites"
"2846","2011BAZ700","BLUE RIBBON LINEN SUPPLY INC","2322 16TH AVE","LEWISTON","Nez Perce","RCRA Hazardous Waste Sites","46.403876","-116.997753","RCRA Hazardous Waste Site","","RCRA Hazardous Waste Sites"
"2848","2011BAZ702","BMA AUTO PARTS","839 MAIN","RATHDRUM","Kootenai","RCRA Hazardous Waste Sites","47.810310","-116.898591","RCRA Hazardous Waste Site","","RCRA Hazardous Waste Sites"
"8051","2011BAZ704","BMC WEST EMMETT","MAIN ST & MURRAY AVE","EMMETT","Gem","RCRA Hazardous Waste Sites","43.876078","-116.504418","RCRA Hazardous Waste Site, Underground Storage Tanks","","RCRA Hazardous Waste Sites"
"2748","2011BAZ473","B & M DETAIL SHOP","164 S 1 W","SODA SPRINGS","Caribou","RCRA Hazardous Waste Sites","42.655415","-111.606579","RCRA Hazardous Waste Site","","RCRA Hazardous Waste Sites"
"8054","2011BAZ709","BOAT WERKES","2915 E SELTICE WAY","POST FALLS","Kootenai","RCRA Hazardous Waste Sites","47.71102","-116.90888","RCRA Hazardous Waste Site, Underground Storage Tanks","","RCRA Hazardous Waste Sites"
"112824","2015BAZ78","BOAT WORLD","7188 N GOVT WAY","DALTON GARDENS","Kootenai","RCRA Hazardous Waste Sites","47.736741","-116.786191","RCRA Hazardous Waste Site","","RCRA Hazardous Waste Sites"
"5960","2011BAZ711","BOB JACKSON BODY REPAIR LLC","856 F ST","LEWISTON","Nez Perce","RCRA Hazardous Waste Sites","46.41889","-117.022942","RCRA Hazardous Waste Site, Underground Storage Tanks","","RCRA Hazardous Waste Sites"
"2852","2011BAZ717","BOBS AUTO BODY","1208 CENTRAL STATE","NAMPA","Canyon","RCRA Hazardous Waste Sites","43.550909","-116.532760","RCRA Hazardous Waste Site","","RCRA Hazardous Waste Sites"
"2853","2011BAZ718","BOBS BODY SHOP","161 N EAGLE RD","EAGLE","Ada","RCRA Hazardous Waste Sites","43.695874","-116.354309","RCRA Hazardous Waste Site","","RCRA Hazardous Waste Sites"
"5963","2011BAZ720","BOBS GARAGE","709 E MAIN ST (8TH & MAIN)","KENDRICK","Latah","RCRA Hazardous Waste Sites","46.61322","-116.64872","RCRA Hazardous Waste Site, Underground Storage Tanks","","RCRA Hazardous Waste Sites"
"14307","2012BAZ375","BODY BY SCOTTY","311 E 3RD AVE","POST FALLS","Kootenai","RCRA Hazardous Waste Sites","47.709","-116.944","RCRA Hazardous Waste Site","","RCRA Hazardous Waste Sites"
"2854","2011BAZ727","BOEING ST INVESTORS LLC","911 W BOEING ST","BOISE","Ada","RCRA Hazardous Waste Sites","43.562795","-116.191008","RCRA Hazardous Waste Site","","RCRA Hazardous Waste Sites"
"5966","2011BAZ732","BOISE ADA DISPOSAL CO INC","2785 S LIBERTY ST","BOISE","Ada","RCRA Hazardous Waste Sites","43.57731","-116.26221","Leaking Underground Storage Tanks, RCRA Hazardous Waste Site, Underground Storage Tanks","","RCRA Hazardous Waste Sites"
"5968","2011BAZ735","BOISE AIRPORT SNOW REMOVAL EQUIP BLDG","4465 INDUSTRIAL ST","BOISE","Ada","RCRA Hazardous Waste Sites","43.5623","-116.20388","Leaking Underground Storage Tanks, RCRA Hazardous Waste Site, Underground Storage Tanks","","RCRA Hazardous Waste Sites"
"5967","2011BAZ733","BOISE AIR TERMINAL","3201 AIRPORT WAY","BOISE","Ada","RCRA Hazardous Waste Sites","43.568716","-116.222137","Leaking Underground Storage Tanks, RCRA Hazardous Waste Site, Underground Storage Tanks","","RCRA Hazardous Waste Sites"
"5967","2011BAZ733","BOISE AIR TERMINAL","3201 AIRPORT WAY","BOISE","Ada","RCRA Hazardous Waste Sites","43.568716","-116.222137","Leaking Underground Storage Tanks, RCRA Hazardous Waste Site, Underground Storage Tanks","","RCRA Hazardous Waste Sites"
"5967","2011BAZ733","BOISE AIR TERMINAL","3201 AIRPORT WAY","BOISE","Ada","RCRA Hazardous Waste Sites","43.568716","-116.222137","Leaking Underground Storage Tanks, RCRA Hazardous Waste Site, Underground Storage Tanks","","RCRA Hazardous Waste Sites"
"5967","2011BAZ733","BOISE AIR TERMINAL","3201 AIRPORT WAY","BOISE","Ada","RCRA Hazardous Waste Sites","43.568716","-116.222137","Leaking Underground Storage Tanks, RCRA Hazardous Waste Site, Underground Storage Tanks","","RCRA Hazardous Waste Sites"
"112747","2015BAZ24","BOISE AUTOMOTIVE SERVICE","9615 W FAIRVIEW AVE","BOISE","Ada","RCRA Hazardous Waste Sites","43.619037","-116.301841","RCRA Hazardous Waste Site","","RCRA Hazardous Waste Sites"
"2857","2011BAZ737","BOISE BATTERY & BRAKE CO","4109 W OVERLAND RD","BOISE","Ada","RCRA Hazardous Waste Sites","43.589264","-116.232606","RCRA Hazardous Waste Site","","RCRA Hazardous Waste Sites"
"2858","2011BAZ738","BOISE BODY SHOP SUPPLY","4960 MORRIS HILL RD","BOISE","Ada","RCRA Hazardous Waste Sites","43.608002","-116.24276","RCRA Hazardous Waste Site","","RCRA Hazardous Waste Sites"
"2859","2011BAZ741","BOISE CARBIDE INC","117 E 35TH ST","GARDEN CITY","Ada","RCRA Hazardous Waste Sites","43.624072","-116.238642","RCRA Hazardous Waste Site","","RCRA Hazardous Waste Sites"
"5970","2011BAZ742","BOISE CASCADE AVIATION","2081 W COMMERCE AVE","BOISE","Ada","RCRA Hazardous Waste Sites","43.562544","-116.206501","RCRA Hazardous Waste Site, Underground Storage Tanks","","RCRA Hazardous Waste Sites"
"13985","2011BAZ743","BOISE CASCADE AVIATION","3565 S OWYHEE ST","BOISE","Ada","RCRA Hazardous Waste Sites","43.571458","-116.223763","Leaking Underground Storage Tanks, RCRA Hazardous Waste Site, Underground Storage Tanks","","RCRA Hazardous Waste Sites"
"2860","2011BAZ746","BOISE CASCADE CORP CASCADE MILL","300 E MILL ST","CASCADE","Valley","RCRA Hazardous Waste Sites","44.517734","-116.036451","Brownfields, RCRA Hazardous Waste Site, Voluntary Cleanup Program","yes","RCRA Hazardous Waste Sites"
"5972","2011BAZ749","BOISE CASCADE COUNCIL SAWMILL","400 N GALENA","COUNCIL","Adams","RCRA Hazardous Waste Sites","44.736","-116.44002","General Remediation, RCRA Hazardous Waste Site, Underground Storage Tanks","","RCRA Hazardous Waste Sites"
"8070","2011BAZ751","BOISE CASCADE WOOD PRODUCTS LLC","MILL RD & MAIN ST (PHYSICAL ADDRESS N 50 CASCADE RD)","EMMETT","Gem","RCRA Hazardous Waste Sites","43.875212","-116.512723","RCRA Hazardous Waste Site, Underground Storage Tanks","","RCRA Hazardous Waste Sites"
"5974","2011BAZ752","BOISE CITY FLEET SERVICES","825 S 17TH ST","BOISE","Ada","RCRA Hazardous Waste Sites","43.618359","-116.222409","Leaking Underground Storage Tanks, RCRA Hazardous Waste Site, Underground Storage Tanks","","RCRA Hazardous Waste Sites"
"8073","2011BAZ755","BOISE CITY WWTP LANDER ST","790 LANDER ST","BOISE","Ada","RCRA Hazardous Waste Sites","43.6404","-116.24272","Leaking Underground Storage Tanks, RCRA Hazardous Waste Site, Underground Storage Tanks","","RCRA Hazardous Waste Sites"
"2864","2011BAZ758","BOISE COLLISION CTR","5201 W CHINDEN BLVD UNIT A","GARDEN CITY","Ada","RCRA Hazardous Waste Sites","43.644668","-116.271293","RCRA Hazardous Waste Site","","RCRA Hazardous Waste Sites"
"2867","2011BAZ761","BOISE FIRE DEPT MAINTENANCE","1791 W SHORELINE DR","BOISE","Ada","RCRA Hazardous Waste Sites","43.617941","-116.2246","RCRA Hazardous Waste Site","","RCRA Hazardous Waste Sites"
"13992","2011BAZ768","BOISE INDEPENDENT SD BOISE HS","1010 W WASHINGTON ST","BOISE","Ada","RCRA Hazardous Waste Sites","43.621271","-116.20243","RCRA Hazardous Waste Site","","RCRA Hazardous Waste Sites"
"2869","2011BAZ769","BOISE INDEPENDENT SD BOISE HS TABERNACLE","900 W WASHINGTON ST","BOISE","Ada","RCRA Hazardous Waste Sites","43.620424","-116.20096","RCRA Hazardous Waste Site","","RCRA Hazardous Waste Sites"
"2871","2011BAZ770","BOISE INDEPENDENT SD BORAH HS","6001 CASSIA ST","BOISE","Ada","RCRA Hazardous Waste Sites","43.594352","-116.257906","RCRA Hazardous Waste Site","","RCRA Hazardous Waste Sites"
"2872","2011BAZ771","BOISE INDEPENDENT SD CAPITAL HS","8055 GODDARD RD","BOISE","Ada","RCRA Hazardous Waste Sites","43.642952","-116.282302","RCRA Hazardous Waste Site","","RCRA Hazardous Waste Sites"
"2873","2011BAZ772","BOISE INDEPENDENT SD LOWELL ELEMENTARY","1507 N 28TH ST","BOISE","Ada","RCRA Hazardous Waste Sites","43.634118","-116.223680","RCRA Hazardous Waste Site","","RCRA Hazardous Waste Sites"
"5979","2011BAZ773","BOISE INDEPENDENT SD MAINT COMPOUND","400 W FORT ST","BOISE","Ada","RCRA Hazardous Waste Sites","43.617924","-116.191694","RCRA Hazardous Waste Site, Underground Storage Tanks","","RCRA Hazardous Waste Sites"
"2874","2011BAZ774","BOISE INDEPENDENT SD ROOSEVELT ELEMENTARY SCHOOL","908 E JEFFERSON ST","BOISE","Ada","RCRA Hazardous Waste Sites","43.609707","-116.182869","RCRA Hazardous Waste Site","","RCRA Hazardous Waste Sites"
"2875","2011BAZ775","BOISE INDEPENDENT SD VICTORY","8201 W VICTORY","BOISE","Ada","RCRA Hazardous Waste Sites","43.572409","-116.28165","RCRA Hazardous Waste Site","","RCRA Hazardous Waste Sites"
"8077","2011BAZ777","BOISE MOBILE EQUIPMENT","900 W BOEING ST","BOISE","Ada","RCRA Hazardous Waste Sites","43.563255","-116.192939","RCRA Hazardous Waste Site, Underground Storage Tanks","","RCRA Hazardous Waste Sites"
"2876","2011BAZ778","BOISE MUFFLER","6100 W FAIRVIEW AVE","BOISE","Ada","RCRA Hazardous Waste Sites","43.619309","-116.257222","RCRA Hazardous Waste Site","","RCRA Hazardous Waste Sites"
"5980","2011BAZ779","BOISE PAPER SOLUTIONS","1808 E CHISHOLM DR","NAMPA","Canyon","RCRA Hazardous Waste Sites","43.600452","-116.549621","RCRA Hazardous Waste Site, Underground Storage Tanks","","RCRA Hazardous Waste Sites"
"2877","2011BAZ780","BOISE PAVING & ASPHALT CO","5400 S APPLE ST","BOISE","Ada","RCRA Hazardous Waste Sites","43.553283","-116.173546","RCRA Hazardous Waste Site","","RCRA Hazardous Waste Sites"
"2878","2011BAZ781","BOISE PETERBILT","6633 FEDERAL WAY (GOWEN RD & I-84)","BOISE","Ada","RCRA Hazardous Waste Sites","43.542733","-116.157571","General Remediation, RCRA Hazardous Waste Site, Underground Storage Tanks","","RCRA Hazardous Waste Sites"
"8078","2011BAZ783","BOISE PRODUCT TERMINAL UNITED OIL","70 N PHILLIPPI ST","BOISE","Ada","RCRA Hazardous Waste Sites","43.605552","-116.247833","General Remediation, RCRA Hazardous Waste Site, Underground Storage Tanks","","RCRA Hazardous Waste Sites"
"2883","2011BAZ798","BOISE VALLEY FENCE CO","825 W CHINDEN BLVD HWY 20","MERIDIAN","Ada","RCRA Hazardous Waste Sites","","","RCRA Hazardous Waste Site","","RCRA Hazardous Waste Sites"
"8090","2011BAZ810","BONANZA MOTORS INC","325 OVERLAND AVE","BURLEY","Cassia","RCRA Hazardous Waste Sites","42.549781","-113.792289","RCRA Hazardous Waste Site, Underground Storage Tanks","","RCRA Hazardous Waste Sites"
"2886","2011BAZ807","BON MARCHE BOISE","370 N MILWAUKEE AVE","BOISE","Ada","RCRA Hazardous Waste Sites","43.608488","-116.280198","RCRA Hazardous Waste Site","","RCRA Hazardous Waste Sites"
"8089","2011BAZ808","BON MARCHE NAMPA","1509 CALDWELL BLVD (KARCHER MALL)","NAMPA","Canyon","RCRA Hazardous Waste Sites","43.60038","-116.59908","Leaking Underground Storage Tanks, RCRA Hazardous Waste Site, Underground Storage Tanks","","RCRA Hazardous Waste Sites"
"14308","2012BAZ376","BONNER CO UNKNOWN CONTAINERS","TANGLEWOOD RD (LEFT SIDE)","PRIEST RIVER","Bonner","RCRA Hazardous Waste Sites","48.378","-116.88","RCRA Hazardous Waste Site","","RCRA Hazardous Waste Sites"
"2891","2011BAZ819","BONNERS FERRY NISSAN CPD INC","406 W BONNER","BONNERS FERRY","Boundary","RCRA Hazardous Waste Sites","48.697111","-116.313265","RCRA Hazardous Waste Site","","RCRA Hazardous Waste Sites"
"5991","2011BAZ820","BONNERS FERRY POST & POLE","5 MLS N OF BONNERS FERRY US 95 (2 MLS E OF JCT OF HWY 95 & HWY 2 NE OF BONNERS FERRY)","BONNERS FERRY","Boundary","RCRA Hazardous Waste Sites","48.72916","-116.25419","RCRA Hazardous Waste Site, Underground Storage Tanks","","RCRA Hazardous Waste Sites"
"2892","2011BAZ824","BONNEVILLE CNTY IMPLEMENT","2105 INDUSTRIAL BLVD","IDAHO FALLS","Bonneville","RCRA Hazardous Waste Sites","43.522415","-111.991686","RCRA Hazardous Waste Site","","RCRA Hazardous Waste Sites"
"8095","2011BAZ827","BONNEVILLE CNTY WEED CONTROL","1241 HOUSTON ST","IDAHO FALLS","Bonneville","RCRA Hazardous Waste Sites","43.493989","-112.050724","RCRA Hazardous Waste Site, Underground Storage Tanks","","RCRA Hazardous Waste Sites"
"2895","2011BAZ832","BORDER STATES TRUCKING INC","920 N CORBIN RD","POST FALLS","Kootenai","RCRA Hazardous Waste Sites","47.717792","-116.990558","RCRA Hazardous Waste Site","","RCRA Hazardous Waste Sites"
"2896","2011BAZ834","BORKS BODY & PAINT","121 E ENTERPRISE","EMMETT","Gem","RCRA Hazardous Waste Sites","43.858890","-116.497748","RCRA Hazardous Waste Site","","RCRA Hazardous Waste Sites"
"2898","2011BAZ840","BOUNDARY CNTY ROAD & BRIDGE SHOP","73 SUNRISE RD OFF HWY 95 2.5 MI N OF BONNERS FERRY","BONNERS FERRY","Boundary","RCRA Hazardous Waste Sites","48.722856","-116.304393","General Remediation, RCRA Hazardous Waste Site","","RCRA Hazardous Waste Sites"
"2899","2011BAZ841","BOUNDARY CNTY SD 101","6750 AUGUSTA ST","BONNERS FERRY","Boundary","RCRA Hazardous Waste Sites","48.68537","-116.325897","RCRA Hazardous Waste Site","","RCRA Hazardous Waste Sites"
"5998","2011BAZ845","BOWEN PETROLEUM IDAHO FALLS","1550 JEFFERSON","IDAHO FALLS","Bonneville","RCRA Hazardous Waste Sites","43.51559","-112.04307","RCRA Hazardous Waste Site, Underground Storage Tanks","","RCRA Hazardous Waste Sites"
"2901","2011BAZ849","BOWEN PETROLEUM MAINTENANCE GARAGE","4699 BURLEY DR","CHUBBUCK","Bannock","RCRA Hazardous Waste Sites","42.918541","-112.462324","RCRA Hazardous Waste Site","","RCRA Hazardous Waste Sites"
"2902","2011BAZ850","BOWEN PETROLEUM POCATELLO","364 TAFT (PO BOX 2012)","POCATELLO","Bannock","RCRA Hazardous Waste Sites","42.881659","-112.453179","RCRA Hazardous Waste Site, Underground Storage Tanks","","RCRA Hazardous Waste Sites"
"2903","2011BAZ851","BOWERS COLLISION & REFINISHING","715 W PACIFIC","BLACKFOOT","Bingham","RCRA Hazardous Waste Sites","43.192952","-112.351336","RCRA Hazardous Waste Site","","RCRA Hazardous Waste Sites"
"2905","2011BAZ858","BRACKS CARQUEST","6838 S MAIN ST","BONNERS FERRY","Boundary","RCRA Hazardous Waste Sites","48.68734","-116.317046","RCRA Hazardous Waste Site","","RCRA Hazardous Waste Sites"
"8106","2011BAZ859","BRACKS FASTENERS","1823 N 4TH","COEUR D ALENE","Kootenai","RCRA Hazardous Waste Sites","47.692701","-116.781164","Leaking Underground Storage Tanks, RCRA Hazardous Waste Site, Underground Storage Tanks","","RCRA Hazardous Waste Sites"
"2907","2011BAZ861","BRADLEY AIR FIELD","5010 W CHINDEN BLVD","GARDEN CITY","Ada","RCRA Hazardous Waste Sites","43.642481","-116.267274","RCRA Hazardous Waste Site","","RCRA Hazardous Waste Sites"
"2908","2011BAZ862","BRADLEY CUSTOM CABINETS","601 E 44TH ST NO 1","GARDEN CITY","Ada","RCRA Hazardous Waste Sites","43.638447","-116.247633","RCRA Hazardous Waste Site","","RCRA Hazardous Waste Sites"
"2906","2011BAZ860","BRAD SMITH EMMETT PROPERTY","142 E MAIN ST","EMMETT","Gem","RCRA Hazardous Waste Sites","43.875641","-116.499321","Brownfields, RCRA Hazardous Waste Site","","RCRA Hazardous Waste Sites"
"112574","2014BAZ158","BRASS GUYS LLC","325 S KINGS RD","NAMPA","Canyon","RCRA Hazardous Waste Sites","43.565451","-116.533379","RCRA Hazardous Waste Site","","RCRA Hazardous Waste Sites"
"8108","2011BAZ867","BRENNTAG PACIFIC INC","5200 N 15TH E","IDAHO FALLS","Bonneville","RCRA Hazardous Waste Sites","43.54201","-112.00292","RCRA Hazardous Waste Site, Underground Storage Tanks","","RCRA Hazardous Waste Sites"
"186051","2016BAZ37","BRENTS AUTOWORKS","2681 HWY 95 S","GENESEE","Latah","RCRA Hazardous Waste Sites","46.55911","-116.95208","RCRA Hazardous Waste Site","","RCRA Hazardous Waste Sites"
"125252","2015BAZ142","BREWSTER WEST LLC","311 S ONEIDA","RUPERT","Minidoka","RCRA Hazardous Waste Sites","42.610738","-113.678878","RCRA Hazardous Waste Site","","RCRA Hazardous Waste Sites"
"6006","2011BAZ875","BRIANS TIRE & AUTO INC","560 E OAK ST","POCATELLO","Bannock","RCRA Hazardous Waste Sites","42.877249","-112.445691","RCRA Hazardous Waste Site, Underground Storage Tanks","","RCRA Hazardous Waste Sites"
"2914","2011BAZ876","BRICE CONSTRUCTION","2000 E PARADISE LN","MERIDIAN","Ada","RCRA Hazardous Waste Sites","43.642139","-116.369162","RCRA Hazardous Waste Site","","RCRA Hazardous Waste Sites"
"8111","2011BAZ877","BRICO OF IDAHO INC","440 3RD AVE S","TWIN FALLS","Twin Falls","RCRA Hazardous Waste Sites","42.55116","-114.46752","RCRA Hazardous Waste Site, Underground Storage Tanks","","RCRA Hazardous Waste Sites"
"2916","2011BAZ880","BRIDGER AUTO BODY & PAINT INC","2167 GARRETT WY","POCATELLO","Bannock","RCRA Hazardous Waste Sites","42.880744","-112.464584","RCRA Hazardous Waste Site","","RCRA Hazardous Waste Sites"
"2918","2011BAZ882","BRIGHT IDEAS LIGHTING CO","121 E 44TH ST STE B","GARDEN CITY","Ada","RCRA Hazardous Waste Sites","43.634253","-116.252735","RCRA Hazardous Waste Site","","RCRA Hazardous Waste Sites"
"2920","2011BAZ885","BROADWAY CENTER LAUNDRY","1217 BROADWAY NO 104","BOISE","Ada","RCRA Hazardous Waste Sites","43.597577","-116.195283","RCRA Hazardous Waste Site","","RCRA Hazardous Waste Sites"
"8113","2011BAZ887","BROADWAY FORD AUTOBODY","605 NEVADA ST","IDAHO FALLS","Bonneville","RCRA Hazardous Waste Sites","43.4967","-112.04791","RCRA Hazardous Waste Site, Underground Storage Tanks","","RCRA Hazardous Waste Sites"
"8114","2011BAZ888","BROADWAY FORD SERVICE","980 W BROADWAY","IDAHO FALLS","Bonneville","RCRA Hazardous Waste Sites","43.495331","-112.049054","RCRA Hazardous Waste Site, Underground Storage Tanks","","RCRA Hazardous Waste Sites"
"14235","2012BAZ31","BROADWAY FRONT LLC","455 S BROADWAY AVE","BOISE","Adams","RCRA Hazardous Waste Sites","43.60695","-116.194201","RCRA Hazardous Waste Site","","RCRA Hazardous Waste Sites"
"2749","2011BAZ475","B & R TRACTOR SERVICE","906 D ST","LEWISTON","Nez Perce","RCRA Hazardous Waste Sites","46.420561","-117.021777","RCRA Hazardous Waste Site","","RCRA Hazardous Waste Sites"
"2922","2011BAZ901","BRUCE BAUMGARTNER TRUCKING","2810 BIG BEAR RIDGE RD","DEARY","Latah","RCRA Hazardous Waste Sites","46.783028","-116.566094","RCRA Hazardous Waste Site","","RCRA Hazardous Waste Sites"
"2927","2011BAZ911","BRUNEEL TIRE FACTORY","824 S MAIN ST","MOSCOW","Latah","RCRA Hazardous Waste Sites","46.417869","-117.011302","RCRA Hazardous Waste Site","","RCRA Hazardous Waste Sites"
"13998","2011BAZ909","BRUNEEL TIRE FACTORY","1515 MAIN ST","LEWISTON","Nez Perce","RCRA Hazardous Waste Sites","46.417850","-117.011185","RCRA Hazardous Waste Site","","RCRA Hazardous Waste Sites"
"13999","2011BAZ910","BRUNEEL TIRE FACTORY","316 THAIN RD","LEWISTON","Nez Perce","RCRA Hazardous Waste Sites","46.383041","-116.979549","RCRA Hazardous Waste Site","","RCRA Hazardous Waste Sites"
"2750","2011BAZ476","B & T AUTO SALVAGE","22483 US HWY 30","CALDWELL","Canyon","RCRA Hazardous Waste Sites","43.697932","-116.692726","RCRA Hazardous Waste Site","","RCRA Hazardous Waste Sites"
"2931","2011BAZ916","BUCK KNIVES INC","660 LOCHSA ST","POST FALLS","Kootenai","RCRA Hazardous Waste Sites","47.700949","-117.006231","RCRA Hazardous Waste Site","","RCRA Hazardous Waste Sites"
"2932","2011BAZ917","BUCK RESIDENCE","76 BOULDER PL","COCOLALLA","BONNER","RCRA Hazardous Waste Sites","48.051787","-116.640955","General Remediation, RCRA Hazardous Waste Site","","RCRA Hazardous Waste Sites"
"2933","2011BAZ919","BUCYRUS-ERIE CO","E QUINN RD","POCATELLO","Bannock","RCRA Hazardous Waste Sites","","","RCRA Hazardous Waste Site","","RCRA Hazardous Waste Sites"
"3982","2011BAZ3398","BUDS POWER SPORTS","106 AIRPORT RD","COTTONWOOD","Idaho","RCRA Hazardous Waste Sites","46.024997","-116.327149","RCRA Hazardous Waste Site","","RCRA Hazardous Waste Sites"
"2934","2011BAZ923","BUDS SAW SERVICE","329 MAIN ST","COTTONWOOD","Idaho","RCRA Hazardous Waste Sites","46.046627","-116.347434","RCRA Hazardous Waste Site","","RCRA Hazardous Waste Sites"
"2935","2011BAZ925","BUHL CITY WWTP","4296 N 1360 E MOUNTAIN VIEW DR","BUHL","Twin Falls","RCRA Hazardous Waste Sites","42.61772","-114.779341","RCRA Hazardous Waste Site","","RCRA Hazardous Waste Sites"
"2937","2011BAZ930","BULL TRANSPORTATION","13284 WILLIS RD","CALDWELL","Canyon","RCRA Hazardous Waste Sites","43.721163","-116.658491","RCRA Hazardous Waste Site","","RCRA Hazardous Waste Sites"
"2939","2011BAZ934","BURCH OIL CO INC","402 N ST CHARLES ST","SALMON","Lemhi","RCRA Hazardous Waste Sites","45.180566","-113.892164","General Remediation, RCRA Hazardous Waste Site","","RCRA Hazardous Waste Sites"
"6023","2011BAZ935","BURDETTE BODY SHOP CBC INC","496 W HWY 39(HOFF RD)","BLACKFOOT","Bingham","RCRA Hazardous Waste Sites","43.197331","-112.394353","RCRA Hazardous Waste Site, Underground Storage Tanks","","RCRA Hazardous Waste Sites"
"113554","2015BAZ139","BURKE RD VACANT LOT","6 MI NE OF I-90 ON BURKE CANYON CREEK RD","BURKE","Shoshone","RCRA Hazardous Waste Sites","47.521434","-115.81644","RCRA Hazardous Waste Site","","RCRA Hazardous Waste Sites"
"2940","2011BAZ936","BURKS TRACTOR CO INC","3140 KIMBERLY RD E","TWIN FALLS","Twin Falls","RCRA Hazardous Waste Sites","42.546290","-114.419776","RCRA Hazardous Waste Site","","RCRA Hazardous Waste Sites"
"2941","2011BAZ938","BURKS TRACTOR CO LLC","3713 GARRITY BLVD","NAMPA","Canyon","RCRA Hazardous Waste Sites","43.591065","-116.524880","RCRA Hazardous Waste Site","","RCRA Hazardous Waste Sites"
"14001","2011BAZ937","BURKS TRACTOR CO LLC","220 FARMWAY RD (1010 Holman Ct)","CALDWELL","Canyon","RCRA Hazardous Waste Sites","43.668203","-116.712466","RCRA Hazardous Waste Site","","RCRA Hazardous Waste Sites"
"2943","2011BAZ942","BURLEY CITY STP","PO BOX 1090","BURLEY","Cassia","RCRA Hazardous Waste Sites","42.546599","-113.772354","RCRA Hazardous Waste Site","","RCRA Hazardous Waste Sites"
"6025","2011BAZ943","BURLEY CITY UTILITIES","2020 PARK AVE","BURLEY","Cassia","RCRA Hazardous Waste Sites","42.52846","-113.80331","Leaking Underground Storage Tanks, RCRA Hazardous Waste Site, Underground Storage Tanks","","RCRA Hazardous Waste Sites"
"2944","2011BAZ945","BURLEY CONSTRUCTION INC","325 E 5TH N","BURLEY","Cassia","RCRA Hazardous Waste Sites","42.561392","-113.801892","RCRA Hazardous Waste Site","","RCRA Hazardous Waste Sites"
"27595","2013BAZ49","BURLEY IRONWORKS LLC","119 W 26TH ST","BURLEY","Cassia","RCRA Hazardous Waste Sites","42.519418","-113.794702","RCRA Hazardous Waste Site","","RCRA Hazardous Waste Sites"
"6027","2011BAZ953","BURLEY PETROLEUM PRODUCTS TERMINAL SINCLAIR","425 E HWY 81","BURLEY","Cassia","RCRA Hazardous Waste Sites","42.51664","-113.70902","RCRA Hazardous Waste Site, Underground Storage Tanks","","RCRA Hazardous Waste Sites"
"2948","2011BAZ955","BURLINGTON N & SANTA FE RR","HWY 41 MP 21","SPIRIT LAKE","Kootenai","RCRA Hazardous Waste Sites","","","RCRA Hazardous Waste Site","","RCRA Hazardous Waste Sites"
"6030","2011BAZ963","BUSCH AGRICULTURAL RESOURCES","5755 S YELLOWSTONE HWY","IDAHO FALLS","Bonneville","RCRA Hazardous Waste Sites","43.44508","-112.07003","RCRA Hazardous Waste Site, Underground Storage Tanks","","RCRA Hazardous Waste Sites"
"6032","2011BAZ965","BUSCH DISTRIBUTORS INC","1311 S MAIN ST","MOSCOW","Latah","RCRA Hazardous Waste Sites","46.72273","-117.00172","RCRA Hazardous Waste Site, Underground Storage Tanks","","RCRA Hazardous Waste Sites"
"2953","2011BAZ968","BUSH HOG/REDI-RAIN","HWY 191 N TYHEE B668","POCATELLO","Bannock","RCRA Hazardous Waste Sites","","","RCRA Hazardous Waste Site","","RCRA Hazardous Waste Sites"
"2954","2011BAZ969","BUSY B DRY CLEANERS","816 21ST ST","LEWISTON","Nez Perce","RCRA Hazardous Waste Sites","46.41195","-117.002346","RCRA Hazardous Waste Site","","RCRA Hazardous Waste Sites"
"2955","2011BAZ970","BUTCH ANDERSON PROPERTY","498 W WASHINGTON","GLENNS FERRY","Elmore","RCRA Hazardous Waste Sites","","","RCRA Hazardous Waste Site","","RCRA Hazardous Waste Sites"
"8478","2011BAZ2185","BUZS TIRE & AUTOMOTIVE","370 W OAK ST","POCATELLO","Bannock","RCRA Hazardous Waste Sites","42.877158","-112.454797","RCRA Hazardous Waste Site, Underground Storage Tanks","","RCRA Hazardous Waste Sites"
"3788","2011BAZ2940","BYU IDAHO","525 S CENTER ST","REXBURG","Madison","RCRA Hazardous Waste Sites","43.81619","-111.78409","RCRA Hazardous Waste Site, Underground Storage Tanks","","RCRA Hazardous Waste Sites"
"112788","2015BAZ47","CABELAS AMMON RETAIL","3693 S 25TH E","AMMON","Bonneville","RCRA Hazardous Waste Sites","43.464574","-111.98343","RCRA Hazardous Waste Site","","RCRA Hazardous Waste Sites"
"3186","2011BAZ1557","CABELAS STORE 019","8109 W FRANKLIN RD","BOISE","Ada","RCRA Hazardous Waste Sites","43.603207","-116.283133","RCRA Hazardous Waste Site","","RCRA Hazardous Waste Sites"
"28660","2013BAZ366","CABELAS STORE 025","101 N CABELA WAY (END OF W POINTE PKWY)","POST FALLS","Kootenai","RCRA Hazardous Waste Sites","47.699278","-117.039456","RCRA Hazardous Waste Site","","RCRA Hazardous Waste Sites"
"14298","2012BAZ367","CABINET SHOP (THE)","12 MT IDAHO GRADE","GRANGEVILLE","Idaho","RCRA Hazardous Waste Sites","45.92421","-116.109092","RCRA Hazardous Waste Site","","RCRA Hazardous Waste Sites"
"8143","2011BAZ997","CADILLAC WACKERLI AUTO CENTER","1363 N HOLMES AVE","IDAHO FALLS","Bonneville","RCRA Hazardous Waste Sites","43.50838","-112.02466","RCRA Hazardous Waste Site, Underground Storage Tanks","","RCRA Hazardous Waste Sites"
"2967","2011BAZ999","CAINS FURNITURE INC WALL ST","319 WALL ST","TWIN FALLS","Twin Falls","RCRA Hazardous Waste Sites","42.554068","-114.477859","RCRA Hazardous Waste Site","","RCRA Hazardous Waste Sites"
"2968","2011BAZ1000","CAINS FURNITURE STORE INC","204 MAIN AVE N","TWIN FALLS","Twin Falls","RCRA Hazardous Waste Sites","42.556956","-114.471307","RCRA Hazardous Waste Site","","RCRA Hazardous Waste Sites"
"2969","2011BAZ1003","CALDWELL AUTO SUPPLY CO INC","820 BLAINE ST","CALDWELL","Canyon","RCRA Hazardous Waste Sites","43.664195","-116.688364","RCRA Hazardous Waste Site","","RCRA Hazardous Waste Sites"
"6044","2011BAZ1007","CALDWELL INDUSTRIAL AIRPORT","4601 AVIATION WAY; 4823 AVIATION WAY","CALDWELL","Canyon","RCRA Hazardous Waste Sites","43.64248","-116.64353","RCRA Hazardous Waste Site, Underground Storage Tanks","","RCRA Hazardous Waste Sites"
"6044","2011BAZ1007","CALDWELL INDUSTRIAL AIRPORT","4601 AVIATION WAY; 4823 AVIATION WAY","CALDWELL","Canyon","RCRA Hazardous Waste Sites","43.64248","-116.64353","RCRA Hazardous Waste Site, Underground Storage Tanks","","RCRA Hazardous Waste Sites"
"2971","2011BAZ1010","CALDWELL SENIOR HIGH SCHOOL","3401 S INDIANA","CALDWELL","Canyon","RCRA Hazardous Waste Sites","43.639173","-116.669027","RCRA Hazardous Waste Site","","RCRA Hazardous Waste Sites"
